<Document xmlns="http://www.opengis.net/kml/2.2" xmlns:atom="http://www.w3.org/2005/Atom" xmlns:gx="http://www.google.com/kml/ext/2.2">
  <Style id="verde">
    <IconStyle>
      <scale>1.2</scale>
      <Icon>
        <href>http://maps.google.com/mapfiles/kml/pushpin/grn-pushpin.png</href>
      </Icon>
    </IconStyle>
  </Style>
  <Style id="amarelo">
    <IconStyle>
      <scale>1.2</scale>
      <Icon>
        <href>http://maps.google.com/mapfiles/kml/pushpin/ylw-pushpin.png</href>
      </Icon>
    </IconStyle>
  </Style>
  <Style id="vermelho">
    <IconStyle>
      <scale>1.2</scale>
      <Icon>
        <href>http://maps.google.com/mapfiles/kml/pushpin/red-pushpin.png</href>
      </Icon>
    </IconStyle>
  </Style>
  <Folder>
    <name>Aguardando formaliza&#231;&#227;o de documentos</name>
  </Folder>
  <Folder>
    <name>Aguardando an&#225;lise</name>
    <Placemark>
      <name>CGH Crissiumal</name>
      <Point>
        <coordinates>-27.4042327925508,-54.1643786430359</coordinates>
      </Point>
      <description>
Processo: 2019/003.691
Usuario: M. H.N GERACAO ELETRICA LTDA
Status: Aguardando an&#225;lise
Municipio: Crissiumal
Corpo Hidrico: Lajeado Grande
    </description>
      <styleUrl>#amarelo</styleUrl>
    </Placemark>
    <Placemark>
      <name>PCH Silveira III</name>
      <Point>
        <coordinates>-28.52315,-49.9896</coordinates>
      </Point>
      <description>
Processo: 2019/000.170
Usuario: SILVEIRA III ENERG&#201;TICA S.A.
Status: Aguardando an&#225;lise
Municipio: S&#227;o Jos&#233; dos Ausentes
Corpo Hidrico: Rio do Silveira
    </description>
      <styleUrl>#amarelo</styleUrl>
    </Placemark>
  </Folder>
  <Folder>
    <name>Aguardando altera&#231;&#245;es de dados inconsistentes</name>
    <Placemark>
      <name>CGH Gl&#243;ria</name>
      <Point>
        <coordinates>-27.8099371429907,-51.2448983019806</coordinates>
      </Point>
      <description>
Processo: 2020/006.741
Usuario: CONSTRUN&#205;VEL ENERGIAS RENOV&#193;VEIS LTDA
Status: Aguardando altera&#231;&#245;es de dados inconsistentes
Municipio: Pinhal da Serra
Corpo Hidrico: Arroio da Gl&#243;ria
    </description>
      <styleUrl>#amarelo</styleUrl>
    </Placemark>
    <Placemark>
      <name>CGH Quevedos</name>
      <Point>
        <coordinates>-29.3524,-54.1755</coordinates>
      </Point>
      <description>
Processo: 2020/006.277
Usuario: Fernando Isoton
Status: Aguardando altera&#231;&#245;es de dados inconsistentes
Municipio: Quevedos
Corpo Hidrico: Rio Toropi-Mirim
    </description>
      <styleUrl>#amarelo</styleUrl>
    </Placemark>
    <Placemark>
      <name>PCH Linha Onze Oeste</name>
      <Point>
        <coordinates>-28.3511124417778,-54.0045500199785</coordinates>
      </Point>
      <description>
Processo: 2020/002.866
Usuario: LINHA ONZE OESTE ENERGIA LTDA
Status: Aguardando altera&#231;&#245;es de dados inconsistentes
Municipio: Coronel Barros
Corpo Hidrico: Rio Iju&#237;
    </description>
      <styleUrl>#amarelo</styleUrl>
    </Placemark>
    <Placemark>
      <name>CGH Suzana</name>
      <Point>
        <coordinates>-27.5152597908802,-52.082783435041</coordinates>
      </Point>
      <description>
Processo: 2020/000.536
Usuario: USINA HIDRELETRICA SUZANA I LTDA
Status: Aguardando altera&#231;&#245;es de dados inconsistentes
Municipio: Gaurama
Corpo Hidrico: Rio Suzana
    </description>
      <styleUrl>#amarelo</styleUrl>
    </Placemark>
    <Placemark>
      <name>PCH Edelweiss</name>
      <Point>
        <coordinates>-27.59,-53.5819444444444</coordinates>
      </Point>
      <description>
Processo: 2019/022.169
Usuario: GUARITA GERADORA DE ENERGIA LTDA
Status: Aguardando altera&#231;&#245;es de dados inconsistentes
Municipio: Erval Seco
Corpo Hidrico: Rio Guarita
    </description>
      <styleUrl>#amarelo</styleUrl>
    </Placemark>
    <Placemark>
      <name>PCH Coronel Barros</name>
      <Point>
        <coordinates>-28.4082,-54.0438</coordinates>
      </Point>
      <description>
Processo: 2019/021.472
Usuario: Cooperativa de Gera&#231;&#227;o de Energia e Desenvolvimento Social LTDA
Status: Aguardando altera&#231;&#245;es de dados inconsistentes
Municipio: Coronel Barros
Corpo Hidrico: Rio Concei&#231;&#227;o
    </description>
      <styleUrl>#amarelo</styleUrl>
    </Placemark>
    <Placemark>
      <name>PCH Ijuizinho</name>
      <Point>
        <coordinates>-28.4020085740672,-54.3117928504944</coordinates>
      </Point>
      <description>
Processo: 2019/013.226
Usuario: COOPERATIVA DE DISTRIBUICAO E GERACAO DE ENERGIA DAS MISSOES
Status: Aguardando altera&#231;&#245;es de dados inconsistentes
Municipio: Entre-Iju&#237;s
Corpo Hidrico: Rio Ijuizinho
    </description>
      <styleUrl>#amarelo</styleUrl>
    </Placemark>
    <Placemark>
      <name>CGH Pedras Brancas</name>
      <Point>
        <coordinates>-28.9708271706572,-52.2400975227356</coordinates>
      </Point>
      <description>
Processo: 2019/006.177
Usuario: CERFOX &#150; COOPERATIVA DE GERA&#199;&#195;O E DESENVOLVIMENTO FONTOURA XAVIER
Status: Aguardando altera&#231;&#245;es de dados inconsistentes
Municipio: Arvorezinha
Corpo Hidrico: Rio Forqueta
    </description>
      <styleUrl>#amarelo</styleUrl>
    </Placemark>
    <Placemark>
      <name>PCH Silveira II</name>
      <Point>
        <coordinates>-28.5496954870663,-49.9945306777954</coordinates>
      </Point>
      <description>
Processo: 2019/005.166
Usuario: SILVEIRA II ENERG&#201;TICA S.A.
Status: Aguardando altera&#231;&#245;es de dados inconsistentes
Municipio: S&#227;o Jos&#233; dos Ausentes
Corpo Hidrico: Rio do Silveira
    </description>
      <styleUrl>#amarelo</styleUrl>
    </Placemark>
    <Placemark>
      <name>CGH Palomas</name>
      <Point>
        <coordinates>-27.3289150400905,-52.3982405662537</coordinates>
      </Point>
      <description>
Processo: 2019/004.975
Usuario: PALOMA ENERGIA LTDA
Status: Aguardando altera&#231;&#245;es de dados inconsistentes
Municipio: Barra do Rio Azul
Corpo Hidrico: Rio Palomas
    </description>
      <styleUrl>#amarelo</styleUrl>
    </Placemark>
    <Placemark>
      <name>CGH Vanassi</name>
      <Point>
        <coordinates>-29.1671439641435,-51.0092751160888</coordinates>
      </Point>
      <description>
Processo: 2019/004.961
Usuario: APS Constru&#231;&#245;es EIRELI
Status: Aguardando altera&#231;&#245;es de dados inconsistentes
Municipio: Caxias do Sul
Corpo Hidrico: Rio Piai
    </description>
      <styleUrl>#amarelo</styleUrl>
    </Placemark>
    <Placemark>
      <name>CGH Touros III</name>
      <Point>
        <coordinates>-28.5343,-50.3776</coordinates>
      </Point>
      <description>
Processo: 2019/003.312
Usuario: TOUROS III ENERG&#201;TICA S.A.
Status: Aguardando altera&#231;&#245;es de dados inconsistentes
Municipio: Bom Jesus
Corpo Hidrico: Sem denomina&#231;&#227;o
    </description>
      <styleUrl>#amarelo</styleUrl>
    </Placemark>
    <Placemark>
      <name>CGH Touros II</name>
      <Point>
        <coordinates>-28.5774,-50.3528</coordinates>
      </Point>
      <description>
Processo: 2019/002.931
Usuario: TOUROS II ENERG&#201;TICA S.A.
Status: Aguardando altera&#231;&#245;es de dados inconsistentes
Municipio: Bom Jesus
Corpo Hidrico: Rio dos Touros
    </description>
      <styleUrl>#amarelo</styleUrl>
    </Placemark>
    <Placemark>
      <name>CGH Foz do Car&#225;</name>
      <Point>
        <coordinates>-29.1742686136754,-51.0578484317457</coordinates>
      </Point>
      <description>
Processo: 2019/000.653
Usuario: APS Constru&#231;&#245;es EIRELI
Status: Aguardando altera&#231;&#245;es de dados inconsistentes
Municipio: Caxias do Sul
Corpo Hidrico: Rio Piai
    </description>
      <styleUrl>#amarelo</styleUrl>
    </Placemark>
    <Placemark>
      <name>CGH Mariano</name>
      <Point>
        <coordinates>-27.6056708264654,-51.5781712532043</coordinates>
      </Point>
      <description>
Processo: 2018/034.380
Usuario: MARIANO GERA&#199;&#195;O DE ENERGIA
Status: Aguardando altera&#231;&#245;es de dados inconsistentes
Municipio: Machadinho
Corpo Hidrico: Sem denomina&#231;&#227;o
    </description>
      <styleUrl>#amarelo</styleUrl>
    </Placemark>
    <Placemark>
      <name>CGH Caxambu</name>
      <Point>
        <coordinates>-28.3982335362495,-53.4572196006775</coordinates>
      </Point>
      <description>
Processo: 2018/033.376
Usuario: Agropecuaria Fockink Ltda
Status: Aguardando altera&#231;&#245;es de dados inconsistentes
Municipio: Panambi
Corpo Hidrico: Sem denomina&#231;&#227;o
    </description>
      <styleUrl>#amarelo</styleUrl>
    </Placemark>
    <Placemark>
      <name>CGH Padre Polo</name>
      <Point>
        <coordinates>-27.6894943455994,-52.5460839271545</coordinates>
      </Point>
      <description>
Processo: 2018/032.593
Usuario: USINA PADRE POLO LTDA - ME
Status: Aguardando altera&#231;&#245;es de dados inconsistentes
Municipio: Jacutinga
Corpo Hidrico: Sem denomina&#231;&#227;o
    </description>
      <styleUrl>#amarelo</styleUrl>
    </Placemark>
    <Placemark>
      <name>CGH Capivari II</name>
      <Point>
        <coordinates>-30.4768916666667,-52.207743</coordinates>
      </Point>
      <description>
Processo: 2018/031.725
Usuario: JCS Engenharia, Consultoria e Participa&#231;&#245;es EIRELLI - EPP
Status: Aguardando altera&#231;&#245;es de dados inconsistentes
Municipio: Dom Feliciano
Corpo Hidrico: Sem denomina&#231;&#227;o
    </description>
      <styleUrl>#amarelo</styleUrl>
    </Placemark>
    <Placemark>
      <name>CGH Capivari II</name>
      <Point>
        <coordinates>-30.4649555278681,-52.2099403535777</coordinates>
      </Point>
      <description>
Processo: 2018/031.421
Usuario: JCS Engenharia, Consultoria e Participa&#231;&#245;es EIRELLI - EPP
Status: Aguardando altera&#231;&#245;es de dados inconsistentes
Municipio: Dom Feliciano
Corpo Hidrico: Arroio Itaticui
    </description>
      <styleUrl>#amarelo</styleUrl>
    </Placemark>
    <Placemark>
      <name>CGH Capivara Baixa</name>
      <Point>
        <coordinates>-27.465,-53.4791</coordinates>
      </Point>
      <description>
Processo: 2018/031.022
Usuario: PARTIALIS COMERCIO E GERA&#199;&#195;O DE ENERGIA S/A
Status: Aguardando altera&#231;&#245;es de dados inconsistentes
Municipio: Erval Seco
Corpo Hidrico: Rio Fortaleza
    </description>
      <styleUrl>#amarelo</styleUrl>
    </Placemark>
    <Placemark>
      <name>PCH Ijuzinho</name>
      <Point>
        <coordinates>-28.4425062637246,-54.2893481254578</coordinates>
      </Point>
      <description>
Processo: 2018/027.596
Usuario: Companhia Estadual de Gera&#231;&#227;o e Transmiss&#227;o de Energia El&#233;trica
Status: Aguardando altera&#231;&#245;es de dados inconsistentes
Municipio: Eug&#234;nio de Castro
Corpo Hidrico: Sem denomina&#231;&#227;o
    </description>
      <styleUrl>#amarelo</styleUrl>
    </Placemark>
    <Placemark>
      <name>UHE Passo Fundo</name>
      <Point>
        <coordinates>-27.552758661097,-52.7412629127502</coordinates>
      </Point>
      <description>
Processo: 2018/022.736
Usuario: ENGIE BRASIL ENERGIA S.A.
Status: Aguardando altera&#231;&#245;es de dados inconsistentes
Municipio: Entre Rios do Sul
Corpo Hidrico: Rio Passo Fundo
    </description>
      <styleUrl>#amarelo</styleUrl>
    </Placemark>
    <Placemark>
      <name>CGH Focchezan</name>
      <Point>
        <coordinates>-28.7032737272059,-51.8483233451843</coordinates>
      </Point>
      <description>
Processo: 2018/020.674
Usuario: Focchezan Energia Ltda
Status: Aguardando altera&#231;&#245;es de dados inconsistentes
Municipio: Nova Bassano
Corpo Hidrico: Rio Carreiro
    </description>
      <styleUrl>#amarelo</styleUrl>
    </Placemark>
    <Placemark>
      <name>PCH Serra dos Cavalinhos I</name>
      <Point>
        <coordinates>-28.796471025244,-50.7297778129578</coordinates>
      </Point>
      <description>
Processo: 2018/014.719
Usuario: SERRA DOS CAVALINHOS I ENERGETICA SA
Status: Aguardando altera&#231;&#245;es de dados inconsistentes
Municipio: Monte Alegre dos Campos
Corpo Hidrico: Sem denomina&#231;&#227;o
    </description>
      <styleUrl>#amarelo</styleUrl>
    </Placemark>
    <Placemark>
      <name>PCH Pezzi</name>
      <Point>
        <coordinates>-28.7931990538675,-50.5646395683289</coordinates>
      </Point>
      <description>
Processo: 2018/014.695
Usuario: PEZZI ENERGETICA SA
Status: Aguardando altera&#231;&#245;es de dados inconsistentes
Municipio: Bom Jesus
Corpo Hidrico: Rio das Antas
    </description>
      <styleUrl>#amarelo</styleUrl>
    </Placemark>
    <Placemark>
      <name>PCH Serra dos Cavalinhos II</name>
      <Point>
        <coordinates>-28.7912433437793,-50.7456564903259</coordinates>
      </Point>
      <description>
Processo: 2018/014.640
Usuario: SERRA DOS CAVALINHOS II ENERGETICA SA
Status: Aguardando altera&#231;&#245;es de dados inconsistentes
Municipio: Monte Alegre dos Campos
Corpo Hidrico: Rio das Antas
    </description>
      <styleUrl>#amarelo</styleUrl>
    </Placemark>
    <Placemark>
      <name>PCH Cotipor&#227;</name>
      <Point>
        <coordinates>-28.9637684333985,-51.7580723762512</coordinates>
      </Point>
      <description>
Processo: 2018/012.969
Usuario: COTIPOR&#195; ENERG&#201;TICA SA
Status: Aguardando altera&#231;&#245;es de dados inconsistentes
Municipio: Cotipor&#227;
Corpo Hidrico: Rio Carreiro
    </description>
      <styleUrl>#amarelo</styleUrl>
    </Placemark>
    <Placemark>
      <name>PCH Ca&#231;ador</name>
      <Point>
        <coordinates>-28.7066614390401,-51.850597858429</coordinates>
      </Point>
      <description>
Processo: 2018/012.255
Usuario: CA&#199;ADOR ENERG&#201;TICA SA
Status: Aguardando altera&#231;&#245;es de dados inconsistentes
Municipio: Serafina Corr&#234;a
Corpo Hidrico: Rio Carreiro
    </description>
      <styleUrl>#amarelo</styleUrl>
    </Placemark>
    <Placemark>
      <name>CGH Carapai</name>
      <Point>
        <coordinates>-29.176085,-51.041886</coordinates>
      </Point>
      <description>
Processo: 2018/004.498
Usuario: APS Constru&#231;&#245;es EIRELI
Status: Aguardando altera&#231;&#245;es de dados inconsistentes
Municipio: Caxias do Sul
Corpo Hidrico: Sem denomina&#231;&#227;o
    </description>
      <styleUrl>#amarelo</styleUrl>
    </Placemark>
    <Placemark>
      <name>CGH P&#233;</name>
      <Point>
        <coordinates>-29.1830694909799,-51.0669207572937</coordinates>
      </Point>
      <description>
Processo: 2018/004.496
Usuario: APS Constru&#231;&#245;es EIRELI
Status: Aguardando altera&#231;&#245;es de dados inconsistentes
Municipio: Caxias do Sul
Corpo Hidrico: Rio Piai
    </description>
      <styleUrl>#amarelo</styleUrl>
    </Placemark>
    <Placemark>
      <name>CGH Caravaggio</name>
      <Point>
        <coordinates>-29.1797,-51.0877</coordinates>
      </Point>
      <description>
Processo: 2018/004.495
Usuario: APS Constru&#231;&#245;es EIRELI
Status: Aguardando altera&#231;&#245;es de dados inconsistentes
Municipio: Caxias do Sul
Corpo Hidrico: Arroio Caravaggio
    </description>
      <styleUrl>#amarelo</styleUrl>
    </Placemark>
    <Placemark>
      <name>CGH Esteira</name>
      <Point>
        <coordinates>-28.6736111111111,-50.85</coordinates>
      </Point>
      <description>
Processo: 2017/026.926
Usuario: Aecogeo Solu&#231;&#245;es Ambientais Ltda
Status: Aguardando altera&#231;&#245;es de dados inconsistentes
Municipio: Monte Alegre dos Campos
Corpo Hidrico: Arroio Esteira
    </description>
      <styleUrl>#amarelo</styleUrl>
    </Placemark>
    <Placemark>
      <name>CGH Gramado Xavier</name>
      <Point>
        <coordinates>-29.2587665674645,-52.6818554804459</coordinates>
      </Point>
      <description>
Processo: 2016/008.018
Usuario: TRES FRONTEIRAS GERA&#199;&#195;O DE ENERGIA
Status: Aguardando altera&#231;&#245;es de dados inconsistentes
Municipio: Gramado Xavier
Corpo Hidrico: Rio Pardo
    </description>
      <styleUrl>#amarelo</styleUrl>
    </Placemark>
    <Placemark>
      <name>CGH Gramado dos Francos</name>
      <Point>
        <coordinates>-29.2217490373422,-52.6704027402137</coordinates>
      </Point>
      <description>
Processo: 2016/008.016
Usuario: TRES FRONTEIRAS GERA&#199;&#195;O DE ENERGIA
Status: Aguardando altera&#231;&#245;es de dados inconsistentes
Municipio: Barros Cassal
Corpo Hidrico: Rio Pardo
    </description>
      <styleUrl>#amarelo</styleUrl>
    </Placemark>
    <Placemark>
      <name>PCH Foz do Biriba</name>
      <Point>
        <coordinates>-29.442915605746,-52.7734939818986</coordinates>
      </Point>
      <description>
Processo: 2016/007.976
Usuario: TRES FRONTEIRAS GERA&#199;&#195;O DE ENERGIA
Status: Aguardando altera&#231;&#245;es de dados inconsistentes
Municipio: Passa Sete
Corpo Hidrico: Rio Pardo
    </description>
      <styleUrl>#amarelo</styleUrl>
    </Placemark>
    <Placemark>
      <name>PCH Linha Carvalho</name>
      <Point>
        <coordinates>-29.4051850331252,-52.7575074230542</coordinates>
      </Point>
      <description>
Processo: 2016/007.970
Usuario: TRES FRONTEIRAS GERA&#199;&#195;O DE ENERGIA
Status: Aguardando altera&#231;&#245;es de dados inconsistentes
Municipio: Passa Sete
Corpo Hidrico: Rio Pardo
    </description>
      <styleUrl>#amarelo</styleUrl>
    </Placemark>
    <Placemark>
      <name>PCH Linha Pinhal</name>
      <Point>
        <coordinates>-29.3675356309659,-52.7459475784488</coordinates>
      </Point>
      <description>
Processo: 2016/007.963
Usuario: TRES FRONTEIRAS GERA&#199;&#195;O DE ENERGIA
Status: Aguardando altera&#231;&#245;es de dados inconsistentes
Municipio: Lago&#227;o
Corpo Hidrico: Rio Pardo
    </description>
      <styleUrl>#amarelo</styleUrl>
    </Placemark>
    <Placemark>
      <name>CGH Passo da Grama</name>
      <Point>
        <coordinates>-29.3289844444486,-52.7326841549166</coordinates>
      </Point>
      <description>
Processo: 2016/007.777
Usuario: TRES FRONTEIRAS GERA&#199;&#195;O DE ENERGIA
Status: Aguardando altera&#231;&#245;es de dados inconsistentes
Municipio: Lago&#227;o
Corpo Hidrico: Rio Pardo
    </description>
      <styleUrl>#amarelo</styleUrl>
    </Placemark>
    <Placemark>
      <name>CGH Lago&#227;o</name>
      <Point>
        <coordinates>-29.3180164291718,-52.7218787358187</coordinates>
      </Point>
      <description>
Processo: 2016/007.736
Usuario: TRES FRONTEIRAS GERA&#199;&#195;O DE ENERGIA
Status: Aguardando altera&#231;&#245;es de dados inconsistentes
Municipio: Sinimbu
Corpo Hidrico: Rio Pardo
    </description>
      <styleUrl>#amarelo</styleUrl>
    </Placemark>
    <Placemark>
      <name>PCH Barra de ferro</name>
      <Point>
        <coordinates>-29.2907602964516,-52.7066558699673</coordinates>
      </Point>
      <description>
Processo: 2016/007.957
Usuario: TRES FRONTEIRAS GERA&#199;&#195;O DE ENERGIA
Status: Aguardando altera&#231;&#245;es de dados inconsistentes
Municipio: Gramado Xavier
Corpo Hidrico: Rio Pardo
    </description>
      <styleUrl>#amarelo</styleUrl>
    </Placemark>
  </Folder>
  <Folder>
    <name>Em an&#225;lise</name>
    <Placemark>
      <name>CGH Guabiju I</name>
      <Point>
        <coordinates>-28.0183100523146,-51.0574126226783</coordinates>
      </Point>
      <description>
Processo: 2020/007.726
Usuario: A&#199;O METAIS FRAIBURGO LTDA
Status: Em an&#225;lise
Municipio: Esmeralda
Corpo Hidrico: Arroio Guabij&#250;
    </description>
      <styleUrl>#amarelo</styleUrl>
    </Placemark>
    <Placemark>
      <name>CGH Touros V</name>
      <Point>
        <coordinates>-28.50290316766,-50.4245209693909</coordinates>
      </Point>
      <description>
Processo: 2019/005.157
Usuario: TOUROS V ENERG&#201;TICA S.A.
Status: Em an&#225;lise
Municipio: Bom Jesus
Corpo Hidrico: Rio dos Touros
    </description>
      <styleUrl>#amarelo</styleUrl>
    </Placemark>
  </Folder>
  <Folder>
    <name>Concedida</name>
    <Placemark>
      <name>PCH Sede II</name>
      <Point>
        <coordinates>-28.3713467861906,-53.8794412024506</coordinates>
      </Point>
      <description>
Processo: 2020/008.760
Usuario: IJUI CENTENARIA GERACAO SPE LTDA
Status: Concedida
Municipio: Iju&#237;
Corpo Hidrico: Rio Potiribu
    </description>
      <styleUrl>#verde</styleUrl>
    </Placemark>
    <Placemark>
      <name>PCH Cotovelo do Jacu&#237;</name>
      <Point>
        <coordinates>-28.6720639800573,-52.7260065078735</coordinates>
      </Point>
      <description>
Processo: 2020/007.390
Usuario: COPREL Cooperativa de Gera&#231;&#227;o de Energia e Desenvolvimento
Status: Concedida
Municipio: Victor Graeff
Corpo Hidrico: Rio Jacu&#237;
    </description>
      <styleUrl>#verde</styleUrl>
    </Placemark>
    <Placemark>
      <name>PCH Ferradura</name>
      <Point>
        <coordinates>-27.5612,-53.5789</coordinates>
      </Point>
      <description>
Processo: 2020/005.099
Usuario: BT GERADORA DE ENERGIA ELETRICA S.A.
Status: Concedida
Municipio: Erval Seco
Corpo Hidrico: Rio Guarita
    </description>
      <styleUrl>#verde</styleUrl>
    </Placemark>
    <Placemark>
      <name>CGH Tr&#234;s Marias</name>
      <Point>
        <coordinates>-28.2990821433521,-50.8559701377817</coordinates>
      </Point>
      <description>
Processo: 2020/001.754
Usuario: BORTOLON AGROCOMERCIAL EIRELI
Status: Concedida
Municipio: Vacaria
Corpo Hidrico: Rio Socorro
    </description>
      <styleUrl>#verde</styleUrl>
    </Placemark>
    <Placemark>
      <name>CGH Fortaleza</name>
      <Point>
        <coordinates>-27.4186,-53.5472</coordinates>
      </Point>
      <description>
Processo: 2020/001.523
Usuario: ENERBIO SERVICOS DE ENGENHARIA LTDA
Status: Concedida
Municipio: Erval Seco
Corpo Hidrico: Rio Fortaleza
    </description>
      <styleUrl>#verde</styleUrl>
    </Placemark>
    <Placemark>
      <name>CGH Buric&#225;</name>
      <Point>
        <coordinates>-27.8971975174369,-54.1075158119202</coordinates>
      </Point>
      <description>
Processo: 2020/000.360
Usuario: COOPERATIVA DE DESENVOLVIMENTO SOCIAL ENTRE RIOS LTDA.
Status: Concedida
Municipio: Inhacor&#225;
Corpo Hidrico: Rio Buric&#225;
    </description>
      <styleUrl>#verde</styleUrl>
    </Placemark>
    <Placemark>
      <name>CGH S&#227;o Jorge</name>
      <Point>
        <coordinates>-27.8221323593531,-51.2537617065137</coordinates>
      </Point>
      <description>
Processo: 2019/025.605
Usuario: CONSTRUN&#205;VEL ENERGIAS RENOV&#193;VEIS LTDA
Status: Concedida
Municipio: Pinhal da Serra
Corpo Hidrico: Arroio da Gl&#243;ria
    </description>
      <styleUrl>#verde</styleUrl>
    </Placemark>
    <Placemark>
      <name>CGH di Franco</name>
      <Point>
        <coordinates>-29.0186486903895,-51.122088432312</coordinates>
      </Point>
      <description>
Processo: 2019/023.469
Usuario: ENERBIO SERVICOS DE ENGENHARIA LTDA
Status: Concedida
Municipio: S&#227;o Marcos
Corpo Hidrico: Arroio S&#227;o Marcos
    </description>
      <styleUrl>#verde</styleUrl>
    </Placemark>
    <Placemark>
      <name>CGH Santa Rita</name>
      <Point>
        <coordinates>-29.5213386449137,-51.9057440757751</coordinates>
      </Point>
      <description>
Processo: 2019/022.994
Usuario: ALS GERA&#199;&#195;O DE ENERGIA SPE LTDA
Status: Concedida
Municipio: Estrela
Corpo Hidrico: Arroio Estrela
    </description>
      <styleUrl>#verde</styleUrl>
    </Placemark>
    <Placemark>
      <name>CGH Eug&#234;nio de Castro</name>
      <Point>
        <coordinates>-28.5427428128476,-54.1852040655927</coordinates>
      </Point>
      <description>
Processo: 2019/021.194
Usuario: EUGENIO DE CASTRO GERACAO E COMERCIO DE ENERGIA ELETRICA LTDA
Status: Concedida
Municipio: Eug&#234;nio de Castro
Corpo Hidrico: Rio Ijuizinho
    </description>
      <styleUrl>#verde</styleUrl>
    </Placemark>
    <Placemark>
      <name>PCH Forquilha II</name>
      <Point>
        <coordinates>-27.6282253835692,-51.7387559110648</coordinates>
      </Point>
      <description>
Processo: 2019/020.046
Usuario: Vertente Engenharia Ltda
Status: Concedida
Municipio: Maximiliano de Almeida
Corpo Hidrico: Rio Forquilha ou Inhandava
    </description>
      <styleUrl>#verde</styleUrl>
    </Placemark>
    <Placemark>
      <name>CGH Pedras Brancas 01</name>
      <Point>
        <coordinates>-28.8130555555556,-51.1291666666667</coordinates>
      </Point>
      <description>
Processo: 2019/014.749
Usuario: Aecogeo Solu&#231;&#245;es Ambientais Ltda
Status: Concedida
Municipio: Campestre da Serra
Corpo Hidrico: Arroio Pedras Brancas
    </description>
      <styleUrl>#verde</styleUrl>
    </Placemark>
    <Placemark>
      <name>CGH Bruna</name>
      <Point>
        <coordinates>-28.0204617307276,-51.0283870699641</coordinates>
      </Point>
      <description>
Processo: 2019/009.268
Usuario: RIO DO FRADE GERA&#199;&#195;O DE ENERGIA LTDA
Status: Concedida
Municipio: Esmeralda
Corpo Hidrico: Rio do Frade
    </description>
      <styleUrl>#verde</styleUrl>
    </Placemark>
    <Placemark>
      <name>CGH Lorenz</name>
      <Point>
        <coordinates>-27.5362,-53.9703</coordinates>
      </Point>
      <description>
Processo: 2019/008.795
Usuario: LORENZ &amp; FILHOS LTDA - EPP
Status: Concedida
Municipio: Humait&#225;
Corpo Hidrico: Lajeado Grande
    </description>
      <styleUrl>#verde</styleUrl>
    </Placemark>
    <Placemark>
      <name>GGH Despraiado</name>
      <Point>
        <coordinates>-28.3207,-50.8651</coordinates>
      </Point>
      <description>
Processo: 2019/008.343
Usuario: X-6 Gera&#231;&#227;o de Energia Eireli
Status: Concedida
Municipio: Vacaria
Corpo Hidrico: Rio Socorro
    </description>
      <styleUrl>#verde</styleUrl>
    </Placemark>
    <Placemark>
      <name>PCH Touros IV</name>
      <Point>
        <coordinates>-28.5267355342475,-50.4083847999573</coordinates>
      </Point>
      <description>
Processo: 2019/005.142
Usuario: TOUROS IV ENERG&#201;TICA S.A.
Status: Concedida
Municipio: Bom Jesus
Corpo Hidrico: Rio dos Touros
    </description>
      <styleUrl>#verde</styleUrl>
    </Placemark>
    <Placemark>
      <name>CGH S&#227;o Miguel II</name>
      <Point>
        <coordinates>-28.7419444444444,-51.5466666666667</coordinates>
      </Point>
      <description>
Processo: 2019/004.535
Usuario: GERALUZ SERVI&#199;OS DE ENGENHARIA LTDA.
Status: Concedida
Municipio: Nova Prata
Corpo Hidrico: Rio da Prata
    </description>
      <styleUrl>#verde</styleUrl>
    </Placemark>
    <Placemark>
      <name>PCH Duque de Caxias</name>
      <Point>
        <coordinates>-28.8264405107931,-51.4937996864319</coordinates>
      </Point>
      <description>
Processo: 2019/004.299
Usuario: MINOZZO PARTICIPA&#199;&#213;ES LTDA
Status: Concedida
Municipio: Vila Flores
Corpo Hidrico: Rio da Prata
    </description>
      <styleUrl>#verde</styleUrl>
    </Placemark>
    <Placemark>
      <name>PCH Cotovelo do Jacu&#237;</name>
      <Point>
        <coordinates>-28.6717251018477,-52.7264142036438</coordinates>
      </Point>
      <description>
Processo: 2019/002.997
Usuario: COPREL Cooperativa de Gera&#231;&#227;o de Energia e Desenvolvimento
Status: Concedida
Municipio: Victor Graeff
Corpo Hidrico: Rio Jacu&#237;
    </description>
      <styleUrl>#verde</styleUrl>
    </Placemark>
    <Placemark>
      <name>PCH Cerquinha II</name>
      <Point>
        <coordinates>-28.5325,-50.2411111111111</coordinates>
      </Point>
      <description>
Processo: 2019/001.898
Usuario: CERQUINHA II ENERG&#201;TICA S.A.
Status: Concedida
Municipio: Bom Jesus
Corpo Hidrico: Arroio Cerquinha
    </description>
      <styleUrl>#verde</styleUrl>
    </Placemark>
    <Placemark>
      <name>CGH Serrinha II</name>
      <Point>
        <coordinates>-28.7852920182863,-51.504034549107</coordinates>
      </Point>
      <description>
Processo: 2019/001.316
Usuario: OLFAR S/A ALIMENTO E ENERGIA
Status: Concedida
Municipio: Prot&#225;sio Alves
Corpo Hidrico: Sem denomina&#231;&#227;o
    </description>
      <styleUrl>#verde</styleUrl>
    </Placemark>
    <Placemark>
      <name>PCH Vale do Leite</name>
      <Point>
        <coordinates>-29.1564837956109,-52.186331749017</coordinates>
      </Point>
      <description>
Processo: 2018/034.982
Usuario: Certel Vale do Leite Gera&#231;&#227;o de Energia S/A
Status: Concedida
Municipio: Pouso Novo
Corpo Hidrico: Rio Forqueta
    </description>
      <styleUrl>#verde</styleUrl>
    </Placemark>
    <Placemark>
      <name>CGH Governador</name>
      <Point>
        <coordinates>-28.7781918007691,-50.6833004951477</coordinates>
      </Point>
      <description>
Processo: 2018/033.655
Usuario: Pablo Rodrigo Ferreira Romeiro
Status: Concedida
Municipio: Monte Alegre dos Campos
Corpo Hidrico: Sem denomina&#231;&#227;o
    </description>
      <styleUrl>#verde</styleUrl>
    </Placemark>
    <Placemark>
      <name>CGH Formigueiro</name>
      <Point>
        <coordinates>-28.5372,-53.8602</coordinates>
      </Point>
      <description>
Processo: 2018/032.067
Usuario: SCHIRMER &amp; CORREA CONSULTORIA FLORESTAL LTDA
Status: Concedida
Municipio: Boa Vista do Cadeado
Corpo Hidrico: Arroio Concei&#231;&#227;o
    </description>
      <styleUrl>#verde</styleUrl>
    </Placemark>
    <Placemark>
      <name>CGH Recanto</name>
      <Point>
        <coordinates>-28.8093322620687,-51.1935424804688</coordinates>
      </Point>
      <description>
Processo: 2018/025.979
Usuario: Vertente Engenharia Ltda
Status: Concedida
Municipio: Ip&#234;
Corpo Hidrico: Rio Vieira
    </description>
      <styleUrl>#verde</styleUrl>
    </Placemark>
    <Placemark>
      <name>CGH Invernada</name>
      <Point>
        <coordinates>-28.7066990796666,-50.9999299049377</coordinates>
      </Point>
      <description>
Processo: 2018/025.491
Usuario: Vertente Engenharia Ltda
Status: Concedida
Municipio: Campestre da Serra
Corpo Hidrico: Rio Refugiado
    </description>
      <styleUrl>#verde</styleUrl>
    </Placemark>
    <Placemark>
      <name>CGH das Cabras</name>
      <Point>
        <coordinates>-27.5369295059163,-53.5697865486145</coordinates>
      </Point>
      <description>
Processo: 2018/023.145
Usuario: CABRAS GERADORA DE ENERGIA EL&#201;TRICA LTDA
Status: Concedida
Municipio: Erval Seco
Corpo Hidrico: Rio Guarita
    </description>
      <styleUrl>#verde</styleUrl>
    </Placemark>
    <Placemark>
      <name>CGH Pedra Branca</name>
      <Point>
        <coordinates>-28.8274009259032,-51.1296659339681</coordinates>
      </Point>
      <description>
Processo: 2018/012.671
Usuario: JCS Engenharia, Consultoria e Participa&#231;&#245;es EIRELLI - EPP
Status: Concedida
Municipio: Campestre da Serra
Corpo Hidrico: Arroio Pedras Brancas
    </description>
      <styleUrl>#verde</styleUrl>
    </Placemark>
    <Placemark>
      <name>PCH Saltinho</name>
      <Point>
        <coordinates>-28.6179425479724,-51.3555693626404</coordinates>
      </Point>
      <description>
Processo: 2018/011.438
Usuario: SALTINHO ENERG&#201;TICA S/A
Status: Concedida
Municipio: Ip&#234;
Corpo Hidrico: rio Ituim
    </description>
      <styleUrl>#verde</styleUrl>
    </Placemark>
    <Placemark>
      <name>CGH Trator</name>
      <Point>
        <coordinates>-29.168654,-51.015124</coordinates>
      </Point>
      <description>
Processo: 2018/003.530
Usuario: APS Constru&#231;&#245;es EIRELI
Status: Concedida
Municipio: Caxias do Sul
Corpo Hidrico: Rio Piai
    </description>
      <styleUrl>#verde</styleUrl>
    </Placemark>
    <Placemark>
      <name>CGH Ligeiro</name>
      <Point>
        <coordinates>-28.1827777777778,-51.8405555555556</coordinates>
      </Point>
      <description>
Processo: 2017/040.172
Usuario: ENERG&#201;TICA RIO LIGEIRO LTDA
Status: Concedida
Municipio: Santa Cec&#237;lia do Sul
Corpo Hidrico: Rio Ligeiro
    </description>
      <styleUrl>#verde</styleUrl>
    </Placemark>
    <Placemark>
      <name>CGH Vieira II</name>
      <Point>
        <coordinates>-28.8227777777778,-51.1727777777778</coordinates>
      </Point>
      <description>
Processo: 2017/030.507
Usuario: Aecogeo Solu&#231;&#245;es Ambientais Ltda
Status: Concedida
Municipio: Ip&#234;
Corpo Hidrico: Arroio Goiabal
    </description>
      <styleUrl>#verde</styleUrl>
    </Placemark>
    <Placemark>
      <name>CGH Tom&#233;</name>
      <Point>
        <coordinates>-28.9544444444444,-50.6275</coordinates>
      </Point>
      <description>
Processo: 2017/028.789
Usuario: Aecogeo Solu&#231;&#245;es Ambientais Ltda
Status: Concedida
Municipio: S&#227;o Francisco de Paula
Corpo Hidrico: Arroio S&#227;o Tome
    </description>
      <styleUrl>#verde</styleUrl>
    </Placemark>
    <Placemark>
      <name>CGH Vieira 01</name>
      <Point>
        <coordinates>-28.8182439423207,-51.1834788322449</coordinates>
      </Point>
      <description>
Processo: 2017/026.651
Usuario: Aecogeo Solu&#231;&#245;es Ambientais Ltda
Status: Concedida
Municipio: Ip&#234;
Corpo Hidrico: Rio Vieira
    </description>
      <styleUrl>#verde</styleUrl>
    </Placemark>
    <Placemark>
      <name>CGH Mirim</name>
      <Point>
        <coordinates>-28.2623,-53.1211</coordinates>
      </Point>
      <description>
Processo: 2017/005.275
Usuario: CONQUISTA GERA&#199;&#195;O DE ENERGIA EL&#201;TRICA LTDA
Status: Concedida
Municipio: Carazinho
Corpo Hidrico: Arroio da Ilha
    </description>
      <styleUrl>#verde</styleUrl>
    </Placemark>
  </Folder>
  <Folder>
    <name>Indeferida</name>
    <Placemark>
      <name>CGH Ligeirinho</name>
      <Point>
        <coordinates>-27.9046,-51.9253</coordinates>
      </Point>
      <description>
Processo: 2019/008.576
Usuario: ESB ENGENHARIA LTDA
Status: Indeferida
Municipio: Sananduva
Corpo Hidrico: Rio Apua&#234; ou Ligeiro
    </description>
      <styleUrl>#vermelho</styleUrl>
    </Placemark>
    <Placemark>
      <name>CGH Fortaleza</name>
      <Point>
        <coordinates>-27.4186111111111,-53.5472222222222</coordinates>
      </Point>
      <description>
Processo: 2019/003.240
Usuario: ENERBIO SERVICOS DE ENGENHARIA LTDA
Status: Indeferida
Municipio: Taquaru&#231;u do Sul
Corpo Hidrico: Rio Fortaleza
    </description>
      <styleUrl>#vermelho</styleUrl>
    </Placemark>
    <Placemark>
      <name>PCH Silveira II</name>
      <Point>
        <coordinates>-28.5228,-49.9897</coordinates>
      </Point>
      <description>
Processo: 2019/001.476
Usuario: SILVEIRA III ENERG&#201;TICA S.A.
Status: Indeferida
Municipio: S&#227;o Jos&#233; dos Ausentes
Corpo Hidrico: Rio do Silveira
    </description>
      <styleUrl>#vermelho</styleUrl>
    </Placemark>
    <Placemark>
      <name>PCH Rio Ijuizinho</name>
      <Point>
        <coordinates>-28.4018122755307,-54.3119215965271</coordinates>
      </Point>
      <description>
Processo: 2019/001.003
Usuario: COOPERATIVA DE DISTRIBUICAO E GERACAO DE ENERGIA DAS MISSOES
Status: Indeferida
Municipio: Entre-Iju&#237;s
Corpo Hidrico: Sem denomina&#231;&#227;o
    </description>
      <styleUrl>#vermelho</styleUrl>
    </Placemark>
    <Placemark>
      <name>CGH Linha Curu&#231;u</name>
      <Point>
        <coordinates>-28.8552777777778,-52.6786111111111</coordinates>
      </Point>
      <description>
Processo: 2018/033.220
Usuario: Tr&#243;pico Energia Renov&#225;vel LTDA
Status: Indeferida
Municipio: Soledade
Corpo Hidrico: Arroio Buti&#225;
    </description>
      <styleUrl>#vermelho</styleUrl>
    </Placemark>
    <Placemark>
      <name>CGH Otto I</name>
      <Point>
        <coordinates>-27.2727856965279,-52.963063194077</coordinates>
      </Point>
      <description>
Processo: 2018/027.635
Usuario: ENERGETICA OTTO LTDA
Status: Indeferida
Municipio: Alpestre
Corpo Hidrico: Lajeado Grande
    </description>
      <styleUrl>#vermelho</styleUrl>
    </Placemark>
    <Placemark>
      <name>CGH Otto II</name>
      <Point>
        <coordinates>-27.2815227016337,-52.961847782135</coordinates>
      </Point>
      <description>
Processo: 2018/027.627
Usuario: ENERGETICA OTTO LTDA
Status: Indeferida
Municipio: Alpestre
Corpo Hidrico: Lajeado Grande
    </description>
      <styleUrl>#vermelho</styleUrl>
    </Placemark>
    <Placemark>
      <name>PCH Coronel Barros</name>
      <Point>
        <coordinates>-28.4082,-54.0438</coordinates>
      </Point>
      <description>
Processo: 2018/017.547
Usuario: Cooperativa de Gera&#231;&#227;o de Energia e Desenvolvimento Social LTDA
Status: Indeferida
Municipio: Coronel Barros
Corpo Hidrico: Rio Concei&#231;&#227;o
    </description>
      <styleUrl>#vermelho</styleUrl>
    </Placemark>
    <Placemark>
      <name>CGH Santa Rita</name>
      <Point>
        <coordinates>-29.5212639574035,-51.9060015678406</coordinates>
      </Point>
      <description>
Processo: 2018/010.895
Usuario: ALS GERA&#199;&#195;O DE ENERGIA SPE LTDA
Status: Indeferida
Municipio: Estrela
Corpo Hidrico: Arroio Estrela
    </description>
      <styleUrl>#vermelho</styleUrl>
    </Placemark>
    <Placemark>
      <name>PCH Teste Amanda</name>
      <Point>
        <coordinates>-28.6088630814389,-51.5082621574402</coordinates>
      </Point>
      <description>
Processo: 2018/005.528
Usuario: Amanda Fadel
Status: Indeferida
Municipio: Andr&#233; da Rocha
Corpo Hidrico: Arroio Chimarrao
    </description>
      <styleUrl>#vermelho</styleUrl>
    </Placemark>
    <Placemark>
      <name>CGH Vanassi</name>
      <Point>
        <coordinates>-29.1671439641435,-51.0092751160888</coordinates>
      </Point>
      <description>
Processo: 2018/003.531
Usuario: APS Constru&#231;&#245;es EIRELI
Status: Indeferida
Municipio: Caxias do Sul
Corpo Hidrico: Sem denomina&#231;&#227;o
    </description>
      <styleUrl>#vermelho</styleUrl>
    </Placemark>
    <Placemark>
      <name>CGH Pedras Brancas 01</name>
      <Point>
        <coordinates>-28.8130555555556,-51.1291666666667</coordinates>
      </Point>
      <description>
Processo: 2017/030.562
Usuario: Aecogeo Solu&#231;&#245;es Ambientais Ltda
Status: Indeferida
Municipio: Campestre da Serra
Corpo Hidrico: Sem denomina&#231;&#227;o
    </description>
      <styleUrl>#vermelho</styleUrl>
    </Placemark>
    <Placemark>
      <name>CGH Arroio da Reserva</name>
      <Point>
        <coordinates>-29.1881,-53.3474</coordinates>
      </Point>
      <description>
Processo: 2017/028.651
Usuario: SAULO SALLES BEVILACQUA NETO
Status: Indeferida
Municipio: Pinhal Grande
Corpo Hidrico: Arroio da Reserva
    </description>
      <styleUrl>#vermelho</styleUrl>
    </Placemark>
    <Placemark>
      <name>CGH Buric&#225;</name>
      <Point>
        <coordinates>-27.8973113016424,-54.1076445579529</coordinates>
      </Point>
      <description>
Processo: 2017/028.632
Usuario: COOPERATIVA DE DESENVOLVIMENTO SOCIAL ENTRE RIOS LTDA.
Status: Indeferida
Municipio: Inhacor&#225;
Corpo Hidrico: Sem denomina&#231;&#227;o
    </description>
      <styleUrl>#vermelho</styleUrl>
    </Placemark>
    <Placemark>
      <name>PCH Sede II</name>
      <Point>
        <coordinates>-28.3713467861906,-53.8794412024506</coordinates>
      </Point>
      <description>
Processo: 2017/000.678
Usuario: IJUI CENTENARIA GERACAO SPE LTDA
Status: Indeferida
Municipio: Iju&#237;
Corpo Hidrico: Rio Potiribu
    </description>
      <styleUrl>#vermelho</styleUrl>
    </Placemark>
  </Folder>
</Document>
