<Document xmlns="http://www.opengis.net/kml/2.2" xmlns:atom="http://www.w3.org/2005/Atom" xmlns:gx="http://www.google.com/kml/ext/2.2">
  <Style id="verde">
    <IconStyle>
      <scale>1.2</scale>
      <Icon>
        <href>http://maps.google.com/mapfiles/kml/pushpin/grn-pushpin.png</href>
      </Icon>
    </IconStyle>
  </Style>
  <Style id="amarelo">
    <IconStyle>
      <scale>1.2</scale>
      <Icon>
        <href>http://maps.google.com/mapfiles/kml/pushpin/ylw-pushpin.png</href>
      </Icon>
    </IconStyle>
  </Style>
  <Style id="vermelho">
    <IconStyle>
      <scale>1.2</scale>
      <Icon>
        <href>http://maps.google.com/mapfiles/kml/pushpin/red-pushpin.png</href>
      </Icon>
    </IconStyle>
  </Style>
  <Folder>
    <name>Aguardando formaliza&#231;&#227;o de documentos</name>
  </Folder>
  <Folder>
    <name>Aguardando an&#225;lise</name>
    <Placemark>
      <name>N/D N/D</name>
      <Point>
        <coordinates>-51.4705256711204,-28.9918383997069</coordinates>
      </Point>
      <description>
Processo: 2021/000.771
Usuario: COOPERATIVA DE GERA&#199;&#195;O DE ENERGIA E DESENVOLVIMENTO
Status: Aguardando an&#225;lise
Municipio: Veran&#243;polis
Corpo Hidrico: Rio da Prata
    </description>
      <styleUrl>#amarelo</styleUrl>
    </Placemark>
    <Placemark>
      <name>N/D N/D</name>
      <Point>
        <coordinates>-53.9303176019693,-28.3370249107068</coordinates>
      </Point>
      <description>
Processo: 2021/000.511
Usuario: Cooperativa de Gera&#231;&#227;o de Energia e Desenvolvimento Social LTDA
Status: Aguardando an&#225;lise
Municipio: Iju&#237;
Corpo Hidrico: Rio Potiribu
    </description>
      <styleUrl>#amarelo</styleUrl>
    </Placemark>
    <Placemark>
      <name>N/D N/D</name>
      <Point>
        <coordinates>-53.9667638546618,-28.4648785878065</coordinates>
      </Point>
      <description>
Processo: 2021/000.469
Usuario: Cooperativa de Gera&#231;&#227;o de Energia e Desenvolvimento Social LTDA
Status: Aguardando an&#225;lise
Municipio: Augusto Pestana
Corpo Hidrico: Rio Concei&#231;&#227;o
    </description>
      <styleUrl>#amarelo</styleUrl>
    </Placemark>
    <Placemark>
      <name>N/D N/D</name>
      <Point>
        <coordinates>-53.811006556359,-28.544080655403</coordinates>
      </Point>
      <description>
Processo: 2020/024.855
Usuario: BITENCORTE SERVICOS ADMINISTRATIVOS EIRELI
Status: Aguardando an&#225;lise
Municipio: Boa Vista do Cadeado
Corpo Hidrico: Arroio Concei&#231;&#227;o
    </description>
      <styleUrl>#amarelo</styleUrl>
    </Placemark>
    <Placemark>
      <name>N/D N/D</name>
      <Point>
        <coordinates>-54.1677176280175,-28.3320436715462</coordinates>
      </Point>
      <description>
Processo: 2020/024.854
Usuario: BITENCORTE SERVICOS ADMINISTRATIVOS EIRELI
Status: Aguardando an&#225;lise
Municipio: Santo &#194;ngelo
Corpo Hidrico: Rio Iju&#237;
    </description>
      <styleUrl>#amarelo</styleUrl>
    </Placemark>
    <Placemark>
      <name>N/D N/D</name>
      <Point>
        <coordinates>-51.335279505293,-28.5886799066781</coordinates>
      </Point>
      <description>
Processo: 2020/023.316
Usuario: Enebras Projetos de Usinas Hidrel&#233;tricas Ltda.
Status: Aguardando an&#225;lise
Municipio: Muitos Cap&#245;es
Corpo Hidrico: RIO ITUIM
    </description>
      <styleUrl>#amarelo</styleUrl>
    </Placemark>
    <Placemark>
      <name>N/D N/D</name>
      <Point>
        <coordinates>-51.8270802497864,-28.6556082950406</coordinates>
      </Point>
      <description>
Processo: 2020/020.791
Usuario: WATER ENERGY OPERA&#199;&#195;O E MANUTEN&#199;&#195;O EIRELI
Status: Aguardando an&#225;lise
Municipio: Nova Ara&#231;&#225;
Corpo Hidrico: Arroio Barra Grande
    </description>
      <styleUrl>#amarelo</styleUrl>
    </Placemark>
  </Folder>
  <Folder>
    <name>Aguardando altera&#231;&#245;es de dados inconsistentes</name>
    <Placemark>
      <name>CGH Tomaz</name>
      <Point>
        <coordinates>-51.034143150755,-28.0463081063571</coordinates>
      </Point>
      <description>
Processo: 2020/025.556
Usuario: RIO DO FRADE GERA&#199;&#195;O DE ENERGIA LTDA
Status: Aguardando altera&#231;&#245;es de dados inconsistentes
Municipio: Esmeralda
Corpo Hidrico: Rio do Frade
    </description>
      <styleUrl>#amarelo</styleUrl>
    </Placemark>
    <Placemark>
      <name>CGH das Miss&#245;es</name>
      <Point>
        <coordinates>-54.5420419868946,-28.1247831213939</coordinates>
      </Point>
      <description>
Processo: 2020/024.843
Usuario: CGH ENERGETICA DAS MISSOES LTDA
Status: Aguardando altera&#231;&#245;es de dados inconsistentes
Municipio: Guarani das Miss&#245;es
Corpo Hidrico: Rio Comanda&#237;
    </description>
      <styleUrl>#amarelo</styleUrl>
    </Placemark>
    <Placemark>
      <name>CGH Nicole</name>
      <Point>
        <coordinates>-51.018,-28.0205</coordinates>
      </Point>
      <description>
Processo: 2020/024.682
Usuario: RIO DO FRADE GERA&#199;&#195;O DE ENERGIA LTDA
Status: Aguardando altera&#231;&#245;es de dados inconsistentes
Municipio: Vacaria
Corpo Hidrico: Rio do Frade
    </description>
      <styleUrl>#amarelo</styleUrl>
    </Placemark>
    <Placemark>
      <name>CGH Eliane</name>
      <Point>
        <coordinates>-51.0069,-28.0044</coordinates>
      </Point>
      <description>
Processo: 2020/024.678
Usuario: RIO DO FRADE GERA&#199;&#195;O DE ENERGIA LTDA
Status: Aguardando altera&#231;&#245;es de dados inconsistentes
Municipio: Vacaria
Corpo Hidrico: Rio do Frade
    </description>
      <styleUrl>#amarelo</styleUrl>
    </Placemark>
    <Placemark>
      <name>CGH S&#227;o Sep&#233;</name>
      <Point>
        <coordinates>-53.6802777777778,-30.2130555555556</coordinates>
      </Point>
      <description>
Processo: 2020/019.563
Usuario: ENERBIO PARTICIPA&#199;&#213;ES LTDA.
Status: Aguardando altera&#231;&#245;es de dados inconsistentes
Municipio: S&#227;o Sep&#233;
Corpo Hidrico: Rio S&#227;o Sepe
    </description>
      <styleUrl>#amarelo</styleUrl>
    </Placemark>
    <Placemark>
      <name>CGH Pontes Filho</name>
      <Point>
        <coordinates>-51.7068569168224,-29.4541607489395</coordinates>
      </Point>
      <description>
Processo: 2020/018.439
Usuario: HT GERA&#199;&#195;O DE ENERGIA EL&#201;TRICA LTDA
Status: Aguardando altera&#231;&#245;es de dados inconsistentes
Municipio: Teut&#244;nia
Corpo Hidrico: Arroio Boa Vista
    </description>
      <styleUrl>#amarelo</styleUrl>
    </Placemark>
    <Placemark>
      <name>PCH Lajeado do Meio</name>
      <Point>
        <coordinates>-54.0079522132874,-27.7543421403806</coordinates>
      </Point>
      <description>
Processo: 2020/016.868
Usuario: INHACORA GERADORA DE ENERGIA ELETRICA LTDA.
Status: Aguardando altera&#231;&#245;es de dados inconsistentes
Municipio: Alegria
Corpo Hidrico: Rio Inhacora
    </description>
      <styleUrl>#amarelo</styleUrl>
    </Placemark>
    <Placemark>
      <name>CGH Augusto Pestana</name>
      <Point>
        <coordinates>-53.9496564832986,-28.4864035371879</coordinates>
      </Point>
      <description>
Processo: 2020/013.471
Usuario: Cooperativa de Gera&#231;&#227;o de Energia e Desenvolvimento Social LTDA
Status: Aguardando altera&#231;&#245;es de dados inconsistentes
Municipio: Augusto Pestana
Corpo Hidrico: Arroio Concei&#231;&#227;o
    </description>
      <styleUrl>#amarelo</styleUrl>
    </Placemark>
    <Placemark>
      <name>CGH Estrela</name>
      <Point>
        <coordinates>-51.0324265369854,-28.0282999176807</coordinates>
      </Point>
      <description>
Processo: 2020/013.091
Usuario: RIO DO FRADE GERA&#199;&#195;O DE ENERGIA LTDA
Status: Aguardando altera&#231;&#245;es de dados inconsistentes
Municipio: Esmeralda
Corpo Hidrico: Rio do Frade
    </description>
      <styleUrl>#amarelo</styleUrl>
    </Placemark>
    <Placemark>
      <name>CGH Fund&#227;o</name>
      <Point>
        <coordinates>-54.1959,-29.3891</coordinates>
      </Point>
      <description>
Processo: 2020/012.601
Usuario: Fernando Isoton
Status: Aguardando altera&#231;&#245;es de dados inconsistentes
Municipio: Quevedos
Corpo Hidrico: Rio Toropi-Mirim
    </description>
      <styleUrl>#amarelo</styleUrl>
    </Placemark>
    <Placemark>
      <name>CGH Pivoto</name>
      <Point>
        <coordinates>-54.853298664093,-29.4534249573119</coordinates>
      </Point>
      <description>
Processo: 2020/010.278
Usuario: CL&#202;NIO ANT&#212;NIO PIVOTO
Status: Aguardando altera&#231;&#245;es de dados inconsistentes
Municipio: S&#227;o Francisco de Assis
Corpo Hidrico: Arroio Piquiri
    </description>
      <styleUrl>#amarelo</styleUrl>
    </Placemark>
    <Placemark>
      <name>CGH Quevedos</name>
      <Point>
        <coordinates>-54.1755,-29.3524</coordinates>
      </Point>
      <description>
Processo: 2020/006.277
Usuario: Fernando Isoton
Status: Aguardando altera&#231;&#245;es de dados inconsistentes
Municipio: Quevedos
Corpo Hidrico: Rio Toropi-Mirim
    </description>
      <styleUrl>#amarelo</styleUrl>
    </Placemark>
    <Placemark>
      <name>PCH Ijuizinho</name>
      <Point>
        <coordinates>-54.3117928504944,-28.4020085740672</coordinates>
      </Point>
      <description>
Processo: 2019/013.226
Usuario: COOPERATIVA DE DISTRIBUICAO E GERACAO DE ENERGIA DAS MISSOES
Status: Aguardando altera&#231;&#245;es de dados inconsistentes
Municipio: Entre-Iju&#237;s
Corpo Hidrico: Rio Ijuizinho
    </description>
      <styleUrl>#amarelo</styleUrl>
    </Placemark>
    <Placemark>
      <name>CGH Pedras Brancas</name>
      <Point>
        <coordinates>-52.2400975227356,-28.9708271706572</coordinates>
      </Point>
      <description>
Processo: 2019/006.177
Usuario: CERFOX &#150; COOPERATIVA DE GERA&#199;&#195;O E DESENVOLVIMENTO FONTOURA XAVIER
Status: Aguardando altera&#231;&#245;es de dados inconsistentes
Municipio: Arvorezinha
Corpo Hidrico: Rio Forqueta
    </description>
      <styleUrl>#amarelo</styleUrl>
    </Placemark>
    <Placemark>
      <name>PCH Ijuzinho</name>
      <Point>
        <coordinates>-54.2893481254578,-28.4425062637246</coordinates>
      </Point>
      <description>
Processo: 2018/027.596
Usuario: Companhia Estadual de Gera&#231;&#227;o e Transmiss&#227;o de Energia El&#233;trica
Status: Aguardando altera&#231;&#245;es de dados inconsistentes
Municipio: Eug&#234;nio de Castro
Corpo Hidrico: Sem denomina&#231;&#227;o
    </description>
      <styleUrl>#amarelo</styleUrl>
    </Placemark>
    <Placemark>
      <name>CGH Gramado Xavier</name>
      <Point>
        <coordinates>-52.6818554804459,-29.2587665674645</coordinates>
      </Point>
      <description>
Processo: 2016/008.018
Usuario: TRES FRONTEIRAS GERA&#199;&#195;O DE ENERGIA
Status: Aguardando altera&#231;&#245;es de dados inconsistentes
Municipio: Gramado Xavier
Corpo Hidrico: Rio Pardo
    </description>
      <styleUrl>#amarelo</styleUrl>
    </Placemark>
    <Placemark>
      <name>CGH Gramado dos Francos</name>
      <Point>
        <coordinates>-52.6704027402137,-29.2217490373422</coordinates>
      </Point>
      <description>
Processo: 2016/008.016
Usuario: TRES FRONTEIRAS GERA&#199;&#195;O DE ENERGIA
Status: Aguardando altera&#231;&#245;es de dados inconsistentes
Municipio: Barros Cassal
Corpo Hidrico: Rio Pardo
    </description>
      <styleUrl>#amarelo</styleUrl>
    </Placemark>
    <Placemark>
      <name>PCH Foz do Biriba</name>
      <Point>
        <coordinates>-52.7734939818986,-29.442915605746</coordinates>
      </Point>
      <description>
Processo: 2016/007.976
Usuario: TRES FRONTEIRAS GERA&#199;&#195;O DE ENERGIA
Status: Aguardando altera&#231;&#245;es de dados inconsistentes
Municipio: Passa Sete
Corpo Hidrico: Rio Pardo
    </description>
      <styleUrl>#amarelo</styleUrl>
    </Placemark>
    <Placemark>
      <name>PCH Linha Carvalho</name>
      <Point>
        <coordinates>-52.7575074230542,-29.4051850331252</coordinates>
      </Point>
      <description>
Processo: 2016/007.970
Usuario: TRES FRONTEIRAS GERA&#199;&#195;O DE ENERGIA
Status: Aguardando altera&#231;&#245;es de dados inconsistentes
Municipio: Passa Sete
Corpo Hidrico: Rio Pardo
    </description>
      <styleUrl>#amarelo</styleUrl>
    </Placemark>
    <Placemark>
      <name>PCH Linha Pinhal</name>
      <Point>
        <coordinates>-52.7459475784488,-29.3675356309659</coordinates>
      </Point>
      <description>
Processo: 2016/007.963
Usuario: TRES FRONTEIRAS GERA&#199;&#195;O DE ENERGIA
Status: Aguardando altera&#231;&#245;es de dados inconsistentes
Municipio: Lago&#227;o
Corpo Hidrico: Rio Pardo
    </description>
      <styleUrl>#amarelo</styleUrl>
    </Placemark>
    <Placemark>
      <name>CGH Passo da Grama</name>
      <Point>
        <coordinates>-52.7326841549166,-29.3289844444486</coordinates>
      </Point>
      <description>
Processo: 2016/007.777
Usuario: TRES FRONTEIRAS GERA&#199;&#195;O DE ENERGIA
Status: Aguardando altera&#231;&#245;es de dados inconsistentes
Municipio: Lago&#227;o
Corpo Hidrico: Rio Pardo
    </description>
      <styleUrl>#amarelo</styleUrl>
    </Placemark>
    <Placemark>
      <name>CGH Lago&#227;o</name>
      <Point>
        <coordinates>-52.7218787358187,-29.3180164291718</coordinates>
      </Point>
      <description>
Processo: 2016/007.736
Usuario: TRES FRONTEIRAS GERA&#199;&#195;O DE ENERGIA
Status: Aguardando altera&#231;&#245;es de dados inconsistentes
Municipio: Sinimbu
Corpo Hidrico: Rio Pardo
    </description>
      <styleUrl>#amarelo</styleUrl>
    </Placemark>
    <Placemark>
      <name>PCH Barra de ferro</name>
      <Point>
        <coordinates>-52.7066558699673,-29.2907602964516</coordinates>
      </Point>
      <description>
Processo: 2016/007.957
Usuario: TRES FRONTEIRAS GERA&#199;&#195;O DE ENERGIA
Status: Aguardando altera&#231;&#245;es de dados inconsistentes
Municipio: Gramado Xavier
Corpo Hidrico: Rio Pardo
    </description>
      <styleUrl>#amarelo</styleUrl>
    </Placemark>
  </Folder>
  <Folder>
    <name>Em an&#225;lise</name>
    <Placemark>
      <name>CGH Formigueiro</name>
      <Point>
        <coordinates>-53.8602407948835,-28.5372003031468</coordinates>
      </Point>
      <description>
Processo: 2020/025.661
Usuario: FORMIGUEIRO GERACAO E COMERCIO DE ENERGIA ELETRICA LTDA
Status: Em an&#225;lise
Municipio: Boa Vista do Cadeado
Corpo Hidrico: Arroio Concei&#231;&#227;o
    </description>
      <styleUrl>#amarelo</styleUrl>
    </Placemark>
    <Placemark>
      <name>PCH Le&#227;o</name>
      <Point>
        <coordinates>-50.9096221219261,-28.1441316163168</coordinates>
      </Point>
      <description>
Processo: 2020/021.892
Usuario: Central El&#233;trica Caibi LTDA
Status: Em an&#225;lise
Municipio: Vacaria
Corpo Hidrico: Rio Le&#227;o
    </description>
      <styleUrl>#amarelo</styleUrl>
    </Placemark>
    <Placemark>
      <name>CGH Eleut&#233;rio</name>
      <Point>
        <coordinates>-51.3836650143821,-27.6758149896291</coordinates>
      </Point>
      <description>
Processo: 2020/020.535
Usuario: ENTRE RIOS GERACAO DE ENERGIA LTDA
Status: Em an&#225;lise
Municipio: Barrac&#227;o
Corpo Hidrico: Lajeado Eleut&#233;rio
    </description>
      <styleUrl>#amarelo</styleUrl>
    </Placemark>
    <Placemark>
      <name>PCH Bugres</name>
      <Point>
        <coordinates>-50.6793,-29.3149</coordinates>
      </Point>
      <description>
Processo: 2020/020.408
Usuario: Companhia Estadual de Gera&#231;&#227;o e Transmiss&#227;o de Energia El&#233;trica
Status: Em an&#225;lise
Municipio: S&#227;o Francisco de Paula
Corpo Hidrico: Rio Santa Cruz
    </description>
      <styleUrl>#amarelo</styleUrl>
    </Placemark>
    <Placemark>
      <name>PCH Bugres</name>
      <Point>
        <coordinates>-50.5695,-29.2994</coordinates>
      </Point>
      <description>
Processo: 2020/020.405
Usuario: Companhia Estadual de Gera&#231;&#227;o e Transmiss&#227;o de Energia El&#233;trica
Status: Em an&#225;lise
Municipio: S&#227;o Francisco de Paula
Corpo Hidrico: Arroio da Divisa
    </description>
      <styleUrl>#amarelo</styleUrl>
    </Placemark>
    <Placemark>
      <name>PCH Bugres</name>
      <Point>
        <coordinates>-50.6181,-29.3276</coordinates>
      </Point>
      <description>
Processo: 2020/010.620
Usuario: Companhia Estadual de Gera&#231;&#227;o e Transmiss&#227;o de Energia El&#233;trica
Status: Em an&#225;lise
Municipio: S&#227;o Francisco de Paula
Corpo Hidrico: Rio Santa Cruz
    </description>
      <styleUrl>#amarelo</styleUrl>
    </Placemark>
    <Placemark>
      <name>PCH Edelweiss</name>
      <Point>
        <coordinates>-53.5819444444444,-27.59</coordinates>
      </Point>
      <description>
Processo: 2019/022.169
Usuario: GUARITA GERADORA DE ENERGIA LTDA
Status: Em an&#225;lise
Municipio: Erval Seco
Corpo Hidrico: Rio Guarita
    </description>
      <styleUrl>#amarelo</styleUrl>
    </Placemark>
    <Placemark>
      <name>PCH Primavera do Rio Turvo</name>
      <Point>
        <coordinates>-51.4576005935669,-28.7937631941904</coordinates>
      </Point>
      <description>
Processo: 2019/021.085
Usuario: Hidrotermica s/a.
Status: Em an&#225;lise
Municipio: Prot&#225;sio Alves
Corpo Hidrico: Rio Turvo
    </description>
      <styleUrl>#amarelo</styleUrl>
    </Placemark>
  </Folder>
  <Folder>
    <name>Concedida</name>
    <Placemark>
      <name>CGH Ligeirinho</name>
      <Point>
        <coordinates>-51.9256567955017,-27.9045553164476</coordinates>
      </Point>
      <description>
Processo: 2020/023.308
Usuario: ESB ENGENHARIA LTDA
Status: Concedida
Municipio: Sananduva
Corpo Hidrico: Rio Apua&#234; ou Ligeiro
    </description>
      <styleUrl>#verde</styleUrl>
    </Placemark>
    <Placemark>
      <name>PCH Barrac&#227;o</name>
      <Point>
        <coordinates>-51.3741087913513,-27.8197206655375</coordinates>
      </Point>
      <description>
Processo: 2020/019.897
Usuario: Enebras Projetos de Usinas Hidrel&#233;tricas Ltda.
Status: Concedida
Municipio: Barrac&#227;o
Corpo Hidrico: Rio Bernardo Jos&#233;
    </description>
      <styleUrl>#verde</styleUrl>
    </Placemark>
    <Placemark>
      <name>CGH Coopermil</name>
      <Point>
        <coordinates>-54.543149471283,-28.1407998190117</coordinates>
      </Point>
      <description>
Processo: 2020/015.305
Usuario: COOPERATIVA MISTA S&#195;O LUIZ LTDA
Status: Concedida
Municipio: Guarani das Miss&#245;es
Corpo Hidrico: Rio Comanda&#237;
    </description>
      <styleUrl>#verde</styleUrl>
    </Placemark>
    <Placemark>
      <name>CGH Santo Anjo</name>
      <Point>
        <coordinates>-51.0881,-29.2021</coordinates>
      </Point>
      <description>
Processo: 2020/014.974
Usuario: CGH SANTO ANJO GERA&#199;&#195;O DE ENERGIA S.A
Status: Concedida
Municipio: Caxias do Sul
Corpo Hidrico: Rio Piai
    </description>
      <styleUrl>#verde</styleUrl>
    </Placemark>
    <Placemark>
      <name>CGH Passo do Buraco</name>
      <Point>
        <coordinates>-50.8399415016174,-28.285675744838</coordinates>
      </Point>
      <description>
Processo: 2020/013.600
Usuario: Z-4 Gera&#231;&#227;o de Energia El&#233;trica
Status: Concedida
Municipio: Vacaria
Corpo Hidrico: Rio Socorro
    </description>
      <styleUrl>#verde</styleUrl>
    </Placemark>
    <Placemark>
      <name>PCH Dalsasso</name>
      <Point>
        <coordinates>-51.4343480359275,-28.7280647929086</coordinates>
      </Point>
      <description>
Processo: 2020/012.821
Usuario: VALE DO TURVO HIDREL&#201;TRICA LTDA
Status: Concedida
Municipio: Ip&#234;
Corpo Hidrico: Rio Turvo
    </description>
      <styleUrl>#verde</styleUrl>
    </Placemark>
    <Placemark>
      <name>PCH Foz do Segredinho</name>
      <Point>
        <coordinates>-51.4359359036644,-28.6968624392378</coordinates>
      </Point>
      <description>
Processo: 2020/012.816
Usuario: VALE DO TURVO HIDREL&#201;TRICA LTDA
Status: Concedida
Municipio: Ip&#234;
Corpo Hidrico: Rio Turvo
    </description>
      <styleUrl>#verde</styleUrl>
    </Placemark>
    <Placemark>
      <name>PCH Linha Tafona</name>
      <Point>
        <coordinates>-51.450097967263,-28.6801505212404</coordinates>
      </Point>
      <description>
Processo: 2020/012.793
Usuario: VALE DO TURVO HIDREL&#201;TRICA LTDA
Status: Concedida
Municipio: Ip&#234;
Corpo Hidrico: Rio Turvo
    </description>
      <styleUrl>#verde</styleUrl>
    </Placemark>
    <Placemark>
      <name>CGH Limeira</name>
      <Point>
        <coordinates>-51.4019469510276,-28.6365014666689</coordinates>
      </Point>
      <description>
Processo: 2020/012.232
Usuario: VALE DO TURVO HIDREL&#201;TRICA LTDA
Status: Concedida
Municipio: Andr&#233; da Rocha
Corpo Hidrico: Rio Turvo
    </description>
      <styleUrl>#verde</styleUrl>
    </Placemark>
    <Placemark>
      <name>CGH Arroio da Reserva</name>
      <Point>
        <coordinates>-53.3473992347717,-29.1880600986026</coordinates>
      </Point>
      <description>
Processo: 2020/011.687
Usuario: SAULO SALLES BEVILACQUA NETO
Status: Concedida
Municipio: Pinhal Grande
Corpo Hidrico: Arroio da Reserva
    </description>
      <styleUrl>#verde</styleUrl>
    </Placemark>
    <Placemark>
      <name>CGH S&#227;o Caetano do Moinho</name>
      <Point>
        <coordinates>-51.6831,-28.9232</coordinates>
      </Point>
      <description>
Processo: 2020/011.305
Usuario: DELFES ENGENHARIA LTDA
Status: Concedida
Municipio: Fagundes Varela
Corpo Hidrico: Arroio Vicente Rosa
    </description>
      <styleUrl>#verde</styleUrl>
    </Placemark>
    <Placemark>
      <name>PCH Segredo</name>
      <Point>
        <coordinates>-51.435100273593,-28.7525216253112</coordinates>
      </Point>
      <description>
Processo: 2020/011.303
Usuario: VALE DO TURVO HIDREL&#201;TRICA LTDA
Status: Concedida
Municipio: Ip&#234;
Corpo Hidrico: Rio Turvo
    </description>
      <styleUrl>#verde</styleUrl>
    </Placemark>
    <Placemark>
      <name>PCH Lixiguana</name>
      <Point>
        <coordinates>-51.3851670514305,-28.6380834202961</coordinates>
      </Point>
      <description>
Processo: 2020/010.833
Usuario: VALE DO TURVO HIDREL&#201;TRICA LTDA
Status: Concedida
Municipio: Muitos Cap&#245;es
Corpo Hidrico: Ituim
    </description>
      <styleUrl>#verde</styleUrl>
    </Placemark>
    <Placemark>
      <name>PCH Barra do Ituim</name>
      <Point>
        <coordinates>-51.4116458188255,-28.6488482889169</coordinates>
      </Point>
      <description>
Processo: 2020/010.778
Usuario: VALE DO TURVO HIDREL&#201;TRICA LTDA
Status: Concedida
Municipio: Andr&#233; da Rocha
Corpo Hidrico: Rio Turvo
    </description>
      <styleUrl>#verde</styleUrl>
    </Placemark>
    <Placemark>
      <name>PCH Fazenda Velha</name>
      <Point>
        <coordinates>-51.406882215615,-28.5703394046889</coordinates>
      </Point>
      <description>
Processo: 2020/010.683
Usuario: VALE DO TURVO HIDREL&#201;TRICA LTDA
Status: Concedida
Municipio: Andr&#233; da Rocha
Corpo Hidrico: Rio Turvo
    </description>
      <styleUrl>#verde</styleUrl>
    </Placemark>
    <Placemark>
      <name>CGH Igrejinha</name>
      <Point>
        <coordinates>-53.9714683208623,-28.7956620902534</coordinates>
      </Point>
      <description>
Processo: 2020/009.773
Usuario: BOA VISTA DO CADEADO ENERGIA LTDA.
Status: Concedida
Municipio: Boa Vista do Cadeado
Corpo Hidrico: Rio Ijuizinho
    </description>
      <styleUrl>#verde</styleUrl>
    </Placemark>
    <Placemark>
      <name>CGH Guabiju II</name>
      <Point>
        <coordinates>-51.0500254745448,-28.0138986023676</coordinates>
      </Point>
      <description>
Processo: 2020/009.716
Usuario: A&#199;O METAIS FRAIBURGO LTDA
Status: Concedida
Municipio: Esmeralda
Corpo Hidrico: Arroio Guabij&#250;
    </description>
      <styleUrl>#verde</styleUrl>
    </Placemark>
    <Placemark>
      <name>PCH Sede II</name>
      <Point>
        <coordinates>-53.8794412024506,-28.3713467861906</coordinates>
      </Point>
      <description>
Processo: 2020/008.760
Usuario: IJUI CENTENARIA GERACAO SPE LTDA
Status: Concedida
Municipio: Iju&#237;
Corpo Hidrico: Rio Potiribu
    </description>
      <styleUrl>#verde</styleUrl>
    </Placemark>
    <Placemark>
      <name>CGH Guabiju I</name>
      <Point>
        <coordinates>-51.0574126226783,-28.0183100523146</coordinates>
      </Point>
      <description>
Processo: 2020/007.726
Usuario: A&#199;O METAIS FRAIBURGO LTDA
Status: Concedida
Municipio: Esmeralda
Corpo Hidrico: Arroio Guabij&#250;
    </description>
      <styleUrl>#verde</styleUrl>
    </Placemark>
    <Placemark>
      <name>PCH Cotovelo do Jacu&#237;</name>
      <Point>
        <coordinates>-52.7260065078735,-28.6720639800573</coordinates>
      </Point>
      <description>
Processo: 2020/007.390
Usuario: COPREL Cooperativa de Gera&#231;&#227;o de Energia e Desenvolvimento
Status: Concedida
Municipio: Victor Graeff
Corpo Hidrico: Rio Jacu&#237;
    </description>
      <styleUrl>#verde</styleUrl>
    </Placemark>
    <Placemark>
      <name>PCH Ferradura</name>
      <Point>
        <coordinates>-53.5789,-27.5612</coordinates>
      </Point>
      <description>
Processo: 2020/005.099
Usuario: BT GERADORA DE ENERGIA ELETRICA S.A.
Status: Concedida
Municipio: Erval Seco
Corpo Hidrico: Rio Guarita
    </description>
      <styleUrl>#verde</styleUrl>
    </Placemark>
    <Placemark>
      <name>CGH S&#227;o Marcos</name>
      <Point>
        <coordinates>-51.0080409049988,-29.0231519320435</coordinates>
      </Point>
      <description>
Processo: 2020/002.905
Usuario: HDE 01 PARTICIPACOES SOCIETARIAS EIRELI
Status: Concedida
Municipio: Caxias do Sul
Corpo Hidrico: Arroio S&#227;o Marcos
    </description>
      <styleUrl>#verde</styleUrl>
    </Placemark>
    <Placemark>
      <name>PCH Linha Onze Oeste</name>
      <Point>
        <coordinates>-54.0045500199785,-28.3511124417778</coordinates>
      </Point>
      <description>
Processo: 2020/002.866
Usuario: LINHA ONZE OESTE ENERGIA LTDA
Status: Concedida
Municipio: Coronel Barros
Corpo Hidrico: Rio Iju&#237;
    </description>
      <styleUrl>#verde</styleUrl>
    </Placemark>
    <Placemark>
      <name>CGH Tr&#234;s Marias</name>
      <Point>
        <coordinates>-50.8559701377817,-28.2990821433521</coordinates>
      </Point>
      <description>
Processo: 2020/001.754
Usuario: BORTOLON AGROCOMERCIAL EIRELI
Status: Concedida
Municipio: Vacaria
Corpo Hidrico: Rio Socorro
    </description>
      <styleUrl>#verde</styleUrl>
    </Placemark>
    <Placemark>
      <name>CGH Fortaleza</name>
      <Point>
        <coordinates>-53.5472,-27.4186</coordinates>
      </Point>
      <description>
Processo: 2020/001.523
Usuario: ENERBIO SERVICOS DE ENGENHARIA LTDA
Status: Concedida
Municipio: Erval Seco
Corpo Hidrico: Rio Fortaleza
    </description>
      <styleUrl>#verde</styleUrl>
    </Placemark>
    <Placemark>
      <name>CGH Suzana</name>
      <Point>
        <coordinates>-52.082783435041,-27.5152597908802</coordinates>
      </Point>
      <description>
Processo: 2020/000.536
Usuario: USINA HIDRELETRICA SUZANA I LTDA
Status: Concedida
Municipio: Gaurama
Corpo Hidrico: Rio Suzana
    </description>
      <styleUrl>#verde</styleUrl>
    </Placemark>
    <Placemark>
      <name>CGH Buric&#225;</name>
      <Point>
        <coordinates>-54.1075158119202,-27.8971975174369</coordinates>
      </Point>
      <description>
Processo: 2020/000.360
Usuario: COOPERATIVA DE DESENVOLVIMENTO SOCIAL ENTRE RIOS LTDA.
Status: Concedida
Municipio: Inhacor&#225;
Corpo Hidrico: Rio Buric&#225;
    </description>
      <styleUrl>#verde</styleUrl>
    </Placemark>
    <Placemark>
      <name>CGH S&#227;o Jorge</name>
      <Point>
        <coordinates>-51.2537617065137,-27.8221323593531</coordinates>
      </Point>
      <description>
Processo: 2019/025.605
Usuario: CONSTRUN&#205;VEL ENERGIAS RENOV&#193;VEIS LTDA
Status: Concedida
Municipio: Pinhal da Serra
Corpo Hidrico: Arroio da Gl&#243;ria
    </description>
      <styleUrl>#verde</styleUrl>
    </Placemark>
    <Placemark>
      <name>CGH Bernardo Jos&#233;</name>
      <Point>
        <coordinates>-51.3604,-27.8621</coordinates>
      </Point>
      <description>
Processo: 2019/024.861
Usuario: Bernardo Jos&#233; Gera&#231;&#227;o de Energia Ltda
Status: Concedida
Municipio: Pinhal da Serra
Corpo Hidrico: Rio Bernardo Jos&#233;
    </description>
      <styleUrl>#verde</styleUrl>
    </Placemark>
    <Placemark>
      <name>CGH di Franco</name>
      <Point>
        <coordinates>-51.122088432312,-29.0186486903895</coordinates>
      </Point>
      <description>
Processo: 2019/023.469
Usuario: ENERBIO SERVICOS DE ENGENHARIA LTDA
Status: Concedida
Municipio: S&#227;o Marcos
Corpo Hidrico: Arroio S&#227;o Marcos
    </description>
      <styleUrl>#verde</styleUrl>
    </Placemark>
    <Placemark>
      <name>CGH Santa Rita</name>
      <Point>
        <coordinates>-51.9057440757751,-29.5213386449137</coordinates>
      </Point>
      <description>
Processo: 2019/022.994
Usuario: ALS GERA&#199;&#195;O DE ENERGIA SPE LTDA
Status: Concedida
Municipio: Estrela
Corpo Hidrico: Arroio Estrela
    </description>
      <styleUrl>#verde</styleUrl>
    </Placemark>
    <Placemark>
      <name>PCH Coronel Barros</name>
      <Point>
        <coordinates>-54.0438,-28.4082</coordinates>
      </Point>
      <description>
Processo: 2019/021.472
Usuario: Cooperativa de Gera&#231;&#227;o de Energia e Desenvolvimento Social LTDA
Status: Concedida
Municipio: Coronel Barros
Corpo Hidrico: Rio Concei&#231;&#227;o
    </description>
      <styleUrl>#verde</styleUrl>
    </Placemark>
    <Placemark>
      <name>PCH Forquilha II</name>
      <Point>
        <coordinates>-51.7387559110648,-27.6282253835692</coordinates>
      </Point>
      <description>
Processo: 2019/020.046
Usuario: Vertente Engenharia Ltda
Status: Concedida
Municipio: Maximiliano de Almeida
Corpo Hidrico: Rio Forquilha ou Inhandava
    </description>
      <styleUrl>#verde</styleUrl>
    </Placemark>
    <Placemark>
      <name>CGH Pedras Brancas 01</name>
      <Point>
        <coordinates>-51.1291666666667,-28.8130555555556</coordinates>
      </Point>
      <description>
Processo: 2019/014.749
Usuario: Aecogeo Solu&#231;&#245;es Ambientais Ltda
Status: Concedida
Municipio: Campestre da Serra
Corpo Hidrico: Arroio Pedras Brancas
    </description>
      <styleUrl>#verde</styleUrl>
    </Placemark>
    <Placemark>
      <name>CGH Bruna</name>
      <Point>
        <coordinates>-51.0283870699641,-28.0204617307276</coordinates>
      </Point>
      <description>
Processo: 2019/009.268
Usuario: RIO DO FRADE GERA&#199;&#195;O DE ENERGIA LTDA
Status: Concedida
Municipio: Esmeralda
Corpo Hidrico: Rio do Frade
    </description>
      <styleUrl>#verde</styleUrl>
    </Placemark>
    <Placemark>
      <name>CGH Lorenz</name>
      <Point>
        <coordinates>-53.9703,-27.5362</coordinates>
      </Point>
      <description>
Processo: 2019/008.795
Usuario: LORENZ &amp; FILHOS LTDA - EPP
Status: Concedida
Municipio: Humait&#225;
Corpo Hidrico: Lajeado Grande
    </description>
      <styleUrl>#verde</styleUrl>
    </Placemark>
    <Placemark>
      <name>CGH Despraiado</name>
      <Point>
        <coordinates>-50.8651,-28.3207</coordinates>
      </Point>
      <description>
Processo: 2019/008.343
Usuario: X-6 Gera&#231;&#227;o de Energia Eireli
Status: Concedida
Municipio: Vacaria
Corpo Hidrico: Rio Socorro
    </description>
      <styleUrl>#verde</styleUrl>
    </Placemark>
    <Placemark>
      <name>PCH Silveira II</name>
      <Point>
        <coordinates>-49.9945306777954,-28.5496954870663</coordinates>
      </Point>
      <description>
Processo: 2019/005.166
Usuario: SILVEIRA II ENERG&#201;TICA S.A.
Status: Concedida
Municipio: S&#227;o Jos&#233; dos Ausentes
Corpo Hidrico: Rio do Silveira
    </description>
      <styleUrl>#verde</styleUrl>
    </Placemark>
    <Placemark>
      <name>CGH Touros V</name>
      <Point>
        <coordinates>-50.4245209693909,-28.50290316766</coordinates>
      </Point>
      <description>
Processo: 2019/005.157
Usuario: TOUROS V ENERG&#201;TICA S.A.
Status: Concedida
Municipio: Bom Jesus
Corpo Hidrico: Rio dos Touros
    </description>
      <styleUrl>#verde</styleUrl>
    </Placemark>
    <Placemark>
      <name>PCH Touros IV</name>
      <Point>
        <coordinates>-50.4083847999573,-28.5267355342475</coordinates>
      </Point>
      <description>
Processo: 2019/005.142
Usuario: TOUROS IV ENERG&#201;TICA S.A.
Status: Concedida
Municipio: Bom Jesus
Corpo Hidrico: Rio dos Touros
    </description>
      <styleUrl>#verde</styleUrl>
    </Placemark>
    <Placemark>
      <name>CGH Palomas</name>
      <Point>
        <coordinates>-52.3982405662537,-27.3289150400905</coordinates>
      </Point>
      <description>
Processo: 2019/004.975
Usuario: PALOMA ENERGIA LTDA
Status: Concedida
Municipio: Barra do Rio Azul
Corpo Hidrico: Rio Palomas
    </description>
      <styleUrl>#verde</styleUrl>
    </Placemark>
    <Placemark>
      <name>CGH S&#227;o Miguel II</name>
      <Point>
        <coordinates>-51.5466666666667,-28.7419444444444</coordinates>
      </Point>
      <description>
Processo: 2019/004.535
Usuario: GERALUZ SERVI&#199;OS DE ENGENHARIA LTDA.
Status: Concedida
Municipio: Nova Prata
Corpo Hidrico: Rio da Prata
    </description>
      <styleUrl>#verde</styleUrl>
    </Placemark>
    <Placemark>
      <name>PCH Duque de Caxias</name>
      <Point>
        <coordinates>-51.4937996864319,-28.8264405107931</coordinates>
      </Point>
      <description>
Processo: 2019/004.299
Usuario: MINOZZO PARTICIPA&#199;&#213;ES LTDA
Status: Concedida
Municipio: Vila Flores
Corpo Hidrico: Rio da Prata
    </description>
      <styleUrl>#verde</styleUrl>
    </Placemark>
    <Placemark>
      <name>CGH Crissiumal</name>
      <Point>
        <coordinates>-54.1643786430359,-27.4042327925508</coordinates>
      </Point>
      <description>
Processo: 2019/003.691
Usuario: M. H.N GERACAO ELETRICA LTDA
Status: Concedida
Municipio: Crissiumal
Corpo Hidrico: Lajeado Grande
    </description>
      <styleUrl>#verde</styleUrl>
    </Placemark>
    <Placemark>
      <name>CGH Touros III</name>
      <Point>
        <coordinates>-50.3776,-28.5343</coordinates>
      </Point>
      <description>
Processo: 2019/003.312
Usuario: TOUROS III ENERG&#201;TICA S.A.
Status: Concedida
Municipio: Bom Jesus
Corpo Hidrico: Sem denomina&#231;&#227;o
    </description>
      <styleUrl>#verde</styleUrl>
    </Placemark>
    <Placemark>
      <name>CGH Touros III</name>
      <Point>
        <coordinates>-50.3528,-28.5774</coordinates>
      </Point>
      <description>
Processo: 2019/002.931
Usuario: TOUROS II ENERG&#201;TICA S.A.
Status: Concedida
Municipio: Bom Jesus
Corpo Hidrico: Rio dos Touros
    </description>
      <styleUrl>#verde</styleUrl>
    </Placemark>
    <Placemark>
      <name>PCH Cerquinha II</name>
      <Point>
        <coordinates>-50.2411111111111,-28.5325</coordinates>
      </Point>
      <description>
Processo: 2019/001.898
Usuario: CERQUINHA II ENERG&#201;TICA S.A.
Status: Concedida
Municipio: Bom Jesus
Corpo Hidrico: Arroio Cerquinha
    </description>
      <styleUrl>#verde</styleUrl>
    </Placemark>
    <Placemark>
      <name>CGH Serrinha II</name>
      <Point>
        <coordinates>-51.504034549107,-28.7852920182863</coordinates>
      </Point>
      <description>
Processo: 2019/001.316
Usuario: OLFAR S/A ALIMENTO E ENERGIA
Status: Concedida
Municipio: Prot&#225;sio Alves
Corpo Hidrico: Sem denomina&#231;&#227;o
    </description>
      <styleUrl>#verde</styleUrl>
    </Placemark>
    <Placemark>
      <name>PCH Vinhedos</name>
      <Point>
        <coordinates>-51.8058,-28.8943</coordinates>
      </Point>
      <description>
Processo: 2019/001.159
Usuario: Enel Brasil S.A
Status: Concedida
Municipio: Fagundes Varela
Corpo Hidrico: Rio Carreiro
    </description>
      <styleUrl>#verde</styleUrl>
    </Placemark>
    <Placemark>
      <name>PCH Silveira III</name>
      <Point>
        <coordinates>-49.9896,-28.52315</coordinates>
      </Point>
      <description>
Processo: 2019/000.170
Usuario: SILVEIRA III ENERG&#201;TICA S.A.
Status: Concedida
Municipio: S&#227;o Jos&#233; dos Ausentes
Corpo Hidrico: Rio do Silveira
    </description>
      <styleUrl>#verde</styleUrl>
    </Placemark>
    <Placemark>
      <name>PCH Vale do Leite</name>
      <Point>
        <coordinates>-52.186331749017,-29.1564837956109</coordinates>
      </Point>
      <description>
Processo: 2018/034.982
Usuario: Certel Vale do Leite Gera&#231;&#227;o de Energia S/A
Status: Concedida
Municipio: Pouso Novo
Corpo Hidrico: Rio Forqueta
    </description>
      <styleUrl>#verde</styleUrl>
    </Placemark>
    <Placemark>
      <name>PCH S&#227;o Valentim</name>
      <Point>
        <coordinates>-51.714,-29.0709</coordinates>
      </Point>
      <description>
Processo: 2018/034.955
Usuario: Enel Brasil S.A
Status: Concedida
Municipio: S&#227;o Valentim do Sul
Corpo Hidrico: Rio Carreiro
    </description>
      <styleUrl>#verde</styleUrl>
    </Placemark>
    <Placemark>
      <name>CGH Mariano</name>
      <Point>
        <coordinates>-51.5781712532043,-27.6056708264654</coordinates>
      </Point>
      <description>
Processo: 2018/034.380
Usuario: MARIANO GERA&#199;&#195;O DE ENERGIA
Status: Concedida
Municipio: Machadinho
Corpo Hidrico: Sem denomina&#231;&#227;o
    </description>
      <styleUrl>#verde</styleUrl>
    </Placemark>
    <Placemark>
      <name>CGH Governador</name>
      <Point>
        <coordinates>-50.6833004951477,-28.7781918007691</coordinates>
      </Point>
      <description>
Processo: 2018/033.655
Usuario: Pablo Rodrigo Ferreira Romeiro
Status: Concedida
Municipio: Monte Alegre dos Campos
Corpo Hidrico: Sem denomina&#231;&#227;o
    </description>
      <styleUrl>#verde</styleUrl>
    </Placemark>
    <Placemark>
      <name>CGH Caxambu</name>
      <Point>
        <coordinates>-53.4572196006775,-28.3982335362495</coordinates>
      </Point>
      <description>
Processo: 2018/033.376
Usuario: Agropecuaria Fockink Ltda
Status: Concedida
Municipio: Panambi
Corpo Hidrico: Sem denomina&#231;&#227;o
    </description>
      <styleUrl>#verde</styleUrl>
    </Placemark>
    <Placemark>
      <name>CGH Padre Polo</name>
      <Point>
        <coordinates>-52.5460839271545,-27.6894943455994</coordinates>
      </Point>
      <description>
Processo: 2018/032.593
Usuario: USINA PADRE POLO LTDA - ME
Status: Concedida
Municipio: Jacutinga
Corpo Hidrico: Sem denomina&#231;&#227;o
    </description>
      <styleUrl>#verde</styleUrl>
    </Placemark>
    <Placemark>
      <name>CGH Formigueiro</name>
      <Point>
        <coordinates>-53.8602,-28.5372</coordinates>
      </Point>
      <description>
Processo: 2018/032.067
Usuario: SCHIRMER &amp; CORREA CONSULTORIA FLORESTAL LTDA
Status: Concedida
Municipio: Boa Vista do Cadeado
Corpo Hidrico: Arroio Concei&#231;&#227;o
    </description>
      <styleUrl>#verde</styleUrl>
    </Placemark>
    <Placemark>
      <name>CGH Capivari II</name>
      <Point>
        <coordinates>-52.207743,-30.4768916666667</coordinates>
      </Point>
      <description>
Processo: 2018/031.725
Usuario: JCS Engenharia, Consultoria e Participa&#231;&#245;es EIRELLI - EPP
Status: Concedida
Municipio: Dom Feliciano
Corpo Hidrico: Sem denomina&#231;&#227;o
    </description>
      <styleUrl>#verde</styleUrl>
    </Placemark>
    <Placemark>
      <name>CGH Daltro Filho</name>
      <Point>
        <coordinates>-51.7493,-29.3301</coordinates>
      </Point>
      <description>
Processo: 2018/031.548
Usuario: SPE DALTRO FILHO GERA&#199;&#195;O DE ENERGIA LTDA
Status: Concedida
Municipio: Imigrante
Corpo Hidrico: Arroio da Seca
    </description>
      <styleUrl>#verde</styleUrl>
    </Placemark>
    <Placemark>
      <name>CGH Capivari II</name>
      <Point>
        <coordinates>-52.2099403535777,-30.4649555278681</coordinates>
      </Point>
      <description>
Processo: 2018/031.421
Usuario: JCS Engenharia, Consultoria e Participa&#231;&#245;es EIRELLI - EPP
Status: Concedida
Municipio: Dom Feliciano
Corpo Hidrico: Arroio Itaticui
    </description>
      <styleUrl>#verde</styleUrl>
    </Placemark>
    <Placemark>
      <name>CGH Capivara Baixa</name>
      <Point>
        <coordinates>-53.4791,-27.465</coordinates>
      </Point>
      <description>
Processo: 2018/031.022
Usuario: PARTIALIS COMERCIO E GERA&#199;&#195;O DE ENERGIA S/A
Status: Concedida
Municipio: Erval Seco
Corpo Hidrico: Rio Fortaleza
    </description>
      <styleUrl>#verde</styleUrl>
    </Placemark>
    <Placemark>
      <name>CGH Recanto</name>
      <Point>
        <coordinates>-51.1935424804688,-28.8093322620687</coordinates>
      </Point>
      <description>
Processo: 2018/025.979
Usuario: Vertente Engenharia Ltda
Status: Concedida
Municipio: Ip&#234;
Corpo Hidrico: Rio Vieira
    </description>
      <styleUrl>#verde</styleUrl>
    </Placemark>
    <Placemark>
      <name>CGH Invernada</name>
      <Point>
        <coordinates>-50.9999299049377,-28.7066990796666</coordinates>
      </Point>
      <description>
Processo: 2018/025.491
Usuario: Vertente Engenharia Ltda
Status: Concedida
Municipio: Campestre da Serra
Corpo Hidrico: Rio Refugiado
    </description>
      <styleUrl>#verde</styleUrl>
    </Placemark>
    <Placemark>
      <name>CGH das Cabras</name>
      <Point>
        <coordinates>-53.5697865486145,-27.5369295059163</coordinates>
      </Point>
      <description>
Processo: 2018/023.145
Usuario: CABRAS GERADORA DE ENERGIA EL&#201;TRICA LTDA
Status: Concedida
Municipio: Erval Seco
Corpo Hidrico: Rio Guarita
    </description>
      <styleUrl>#verde</styleUrl>
    </Placemark>
    <Placemark>
      <name>CGH Focchezan</name>
      <Point>
        <coordinates>-51.8483233451843,-28.7032737272059</coordinates>
      </Point>
      <description>
Processo: 2018/020.674
Usuario: Focchezan Energia Ltda
Status: Concedida
Municipio: Nova Bassano
Corpo Hidrico: Rio Carreiro
    </description>
      <styleUrl>#verde</styleUrl>
    </Placemark>
    <Placemark>
      <name>CGH Pedra Branca</name>
      <Point>
        <coordinates>-51.1296659339681,-28.8274009259032</coordinates>
      </Point>
      <description>
Processo: 2018/012.671
Usuario: JCS Engenharia, Consultoria e Participa&#231;&#245;es EIRELLI - EPP
Status: Concedida
Municipio: Campestre da Serra
Corpo Hidrico: Arroio Pedras Brancas
    </description>
      <styleUrl>#verde</styleUrl>
    </Placemark>
    <Placemark>
      <name>PCH Saltinho</name>
      <Point>
        <coordinates>-51.3555693626404,-28.6179425479724</coordinates>
      </Point>
      <description>
Processo: 2018/011.438
Usuario: SALTINHO ENERG&#201;TICA S/A
Status: Concedida
Municipio: Ip&#234;
Corpo Hidrico: rio Ituim
    </description>
      <styleUrl>#verde</styleUrl>
    </Placemark>
    <Placemark>
      <name>PCH Chimarr&#227;o</name>
      <Point>
        <coordinates>-51.3997,-28.5976</coordinates>
      </Point>
      <description>
Processo: 2018/019.843
Usuario: CHIMARR&#195;O ENERG&#201;TICA S.A.
Status: Concedida
Municipio: Muitos Cap&#245;es
Corpo Hidrico: Rio Turvo
    </description>
      <styleUrl>#verde</styleUrl>
    </Placemark>
    <Placemark>
      <name>CGH Trator</name>
      <Point>
        <coordinates>-51.015124,-29.168654</coordinates>
      </Point>
      <description>
Processo: 2018/003.530
Usuario: APS Constru&#231;&#245;es EIRELI
Status: Concedida
Municipio: Caxias do Sul
Corpo Hidrico: Rio Piai
    </description>
      <styleUrl>#verde</styleUrl>
    </Placemark>
    <Placemark>
      <name>CGH Ligeiro</name>
      <Point>
        <coordinates>-51.8405555555556,-28.1827777777778</coordinates>
      </Point>
      <description>
Processo: 2017/040.172
Usuario: ENERG&#201;TICA RIO LIGEIRO LTDA
Status: Concedida
Municipio: Santa Cec&#237;lia do Sul
Corpo Hidrico: Rio Ligeiro
    </description>
      <styleUrl>#verde</styleUrl>
    </Placemark>
    <Placemark>
      <name>CGH Vieira II</name>
      <Point>
        <coordinates>-51.1727777777778,-28.8227777777778</coordinates>
      </Point>
      <description>
Processo: 2017/030.507
Usuario: Aecogeo Solu&#231;&#245;es Ambientais Ltda
Status: Concedida
Municipio: Ip&#234;
Corpo Hidrico: Arroio Goiabal
    </description>
      <styleUrl>#verde</styleUrl>
    </Placemark>
    <Placemark>
      <name>CGH Tom&#233;</name>
      <Point>
        <coordinates>-50.6275,-28.9544444444444</coordinates>
      </Point>
      <description>
Processo: 2017/028.789
Usuario: Aecogeo Solu&#231;&#245;es Ambientais Ltda
Status: Concedida
Municipio: S&#227;o Francisco de Paula
Corpo Hidrico: Arroio S&#227;o Tome
    </description>
      <styleUrl>#verde</styleUrl>
    </Placemark>
    <Placemark>
      <name>PCH Forquilha IV Luciano Barancelli</name>
      <Point>
        <coordinates>-51.7498262903609,-27.6140889102323</coordinates>
      </Point>
      <description>
Processo: 2017/028.636
Usuario: CENTRAL GERADORA HIDREL&#201;TRICA FORQUILHA LTDA.
Status: Concedida
Municipio: Maximiliano de Almeida
Corpo Hidrico: Rio Forquilha ou Inhandava
    </description>
      <styleUrl>#verde</styleUrl>
    </Placemark>
    <Placemark>
      <name>CGH Esteira</name>
      <Point>
        <coordinates>-50.85,-28.6736111111111</coordinates>
      </Point>
      <description>
Processo: 2017/026.926
Usuario: Aecogeo Solu&#231;&#245;es Ambientais Ltda
Status: Concedida
Municipio: Monte Alegre dos Campos
Corpo Hidrico: Arroio Esteira
    </description>
      <styleUrl>#verde</styleUrl>
    </Placemark>
    <Placemark>
      <name>CGH Vieira 01</name>
      <Point>
        <coordinates>-51.1834788322449,-28.8182439423207</coordinates>
      </Point>
      <description>
Processo: 2017/026.651
Usuario: Aecogeo Solu&#231;&#245;es Ambientais Ltda
Status: Concedida
Municipio: Ip&#234;
Corpo Hidrico: Rio Vieira
    </description>
      <styleUrl>#verde</styleUrl>
    </Placemark>
    <Placemark>
      <name>CGH Pozza I</name>
      <Point>
        <coordinates>-51.6129326820373,-27.5935766943117</coordinates>
      </Point>
      <description>
Processo: 2017/011.290
Usuario: ITASUL ENERGY GERA&#199;&#195;O DE ENERGIA LTDA
Status: Concedida
Municipio: Machadinho
Corpo Hidrico: Lajeado Tigre
    </description>
      <styleUrl>#verde</styleUrl>
    </Placemark>
    <Placemark>
      <name>CGH Mirim</name>
      <Point>
        <coordinates>-53.1211,-28.2623</coordinates>
      </Point>
      <description>
Processo: 2017/005.275
Usuario: CONQUISTA GERA&#199;&#195;O DE ENERGIA EL&#201;TRICA LTDA
Status: Concedida
Municipio: Carazinho
Corpo Hidrico: Arroio da Ilha
    </description>
      <styleUrl>#verde</styleUrl>
    </Placemark>
    <Placemark>
      <name>CGH Sperotto</name>
      <Point>
        <coordinates>-53.6951422691345,-27.8708722237738</coordinates>
      </Point>
      <description>
Processo: 2016/013.809
Usuario: Hidroel&#233;trica Sperotto Queda do Turvo Ltda
Status: Concedida
Municipio: Santo Augusto
Corpo Hidrico: Rio Turvo
    </description>
      <styleUrl>#verde</styleUrl>
    </Placemark>
  </Folder>
  <Folder>
    <name>Indeferida</name>
    <Placemark>
      <name>CGH Ligeirinho</name>
      <Point>
        <coordinates>-51.9250130653381,-27.9060344012094</coordinates>
      </Point>
      <description>
Processo: 2020/011.908
Usuario: ESB ENGENHARIA LTDA
Status: Indeferida
Municipio: Sananduva
Corpo Hidrico: Rio Apua&#234; ou Ligeiro
    </description>
      <styleUrl>#vermelho</styleUrl>
    </Placemark>
    <Placemark>
      <name>CGH Gl&#243;ria</name>
      <Point>
        <coordinates>-51.2448983019806,-27.8099371429907</coordinates>
      </Point>
      <description>
Processo: 2020/006.741
Usuario: CONSTRUN&#205;VEL ENERGIAS RENOV&#193;VEIS LTDA
Status: Indeferida
Municipio: Pinhal da Serra
Corpo Hidrico: Arroio da Gl&#243;ria
    </description>
      <styleUrl>#vermelho</styleUrl>
    </Placemark>
    <Placemark>
      <name>CGH Ligeirinho</name>
      <Point>
        <coordinates>-51.9253,-27.9046</coordinates>
      </Point>
      <description>
Processo: 2019/008.576
Usuario: ESB ENGENHARIA LTDA
Status: Indeferida
Municipio: Sananduva
Corpo Hidrico: Rio Apua&#234; ou Ligeiro
    </description>
      <styleUrl>#vermelho</styleUrl>
    </Placemark>
    <Placemark>
      <name>CGH Vanassi</name>
      <Point>
        <coordinates>-51.0092751160888,-29.1671439641435</coordinates>
      </Point>
      <description>
Processo: 2019/004.961
Usuario: APS Constru&#231;&#245;es EIRELI
Status: Indeferida
Municipio: Caxias do Sul
Corpo Hidrico: Rio Piai
    </description>
      <styleUrl>#vermelho</styleUrl>
    </Placemark>
    <Placemark>
      <name>CGH Fortaleza</name>
      <Point>
        <coordinates>-53.5472222222222,-27.4186111111111</coordinates>
      </Point>
      <description>
Processo: 2019/003.240
Usuario: ENERBIO SERVICOS DE ENGENHARIA LTDA
Status: Indeferida
Municipio: Taquaru&#231;u do Sul
Corpo Hidrico: Rio Fortaleza
    </description>
      <styleUrl>#vermelho</styleUrl>
    </Placemark>
    <Placemark>
      <name>PCH Silveira II</name>
      <Point>
        <coordinates>-49.9897,-28.5228</coordinates>
      </Point>
      <description>
Processo: 2019/001.476
Usuario: SILVEIRA III ENERG&#201;TICA S.A.
Status: Indeferida
Municipio: S&#227;o Jos&#233; dos Ausentes
Corpo Hidrico: Rio do Silveira
    </description>
      <styleUrl>#vermelho</styleUrl>
    </Placemark>
    <Placemark>
      <name>PCH Rio Ijuizinho</name>
      <Point>
        <coordinates>-54.3119215965271,-28.4018122755307</coordinates>
      </Point>
      <description>
Processo: 2019/001.003
Usuario: COOPERATIVA DE DISTRIBUICAO E GERACAO DE ENERGIA DAS MISSOES
Status: Indeferida
Municipio: Entre-Iju&#237;s
Corpo Hidrico: Sem denomina&#231;&#227;o
    </description>
      <styleUrl>#vermelho</styleUrl>
    </Placemark>
    <Placemark>
      <name>CGH Foz do Car&#225;</name>
      <Point>
        <coordinates>-51.0578484317457,-29.1742686136754</coordinates>
      </Point>
      <description>
Processo: 2019/000.653
Usuario: APS Constru&#231;&#245;es EIRELI
Status: Indeferida
Municipio: Caxias do Sul
Corpo Hidrico: Rio Piai
    </description>
      <styleUrl>#vermelho</styleUrl>
    </Placemark>
    <Placemark>
      <name>CGH Linha Curu&#231;u</name>
      <Point>
        <coordinates>-52.6786111111111,-28.8552777777778</coordinates>
      </Point>
      <description>
Processo: 2018/033.220
Usuario: Tr&#243;pico Energia Renov&#225;vel LTDA
Status: Indeferida
Municipio: Soledade
Corpo Hidrico: Arroio Buti&#225;
    </description>
      <styleUrl>#vermelho</styleUrl>
    </Placemark>
    <Placemark>
      <name>CGH Otto I</name>
      <Point>
        <coordinates>-52.963063194077,-27.2727856965279</coordinates>
      </Point>
      <description>
Processo: 2018/027.635
Usuario: ENERGETICA OTTO LTDA
Status: Indeferida
Municipio: Alpestre
Corpo Hidrico: Lajeado Grande
    </description>
      <styleUrl>#vermelho</styleUrl>
    </Placemark>
    <Placemark>
      <name>CGH Otto II</name>
      <Point>
        <coordinates>-52.961847782135,-27.2815227016337</coordinates>
      </Point>
      <description>
Processo: 2018/027.627
Usuario: ENERGETICA OTTO LTDA
Status: Indeferida
Municipio: Alpestre
Corpo Hidrico: Lajeado Grande
    </description>
      <styleUrl>#vermelho</styleUrl>
    </Placemark>
    <Placemark>
      <name>UHE Passo Fundo</name>
      <Point>
        <coordinates>-52.7412629127502,-27.552758661097</coordinates>
      </Point>
      <description>
Processo: 2018/022.736
Usuario: ENGIE BRASIL ENERGIA S.A.
Status: Indeferida
Municipio: Entre Rios do Sul
Corpo Hidrico: Rio Passo Fundo
    </description>
      <styleUrl>#vermelho</styleUrl>
    </Placemark>
    <Placemark>
      <name>PCH Serra dos Cavalinhos I</name>
      <Point>
        <coordinates>-50.7297778129578,-28.796471025244</coordinates>
      </Point>
      <description>
Processo: 2018/014.719
Usuario: SERRA DOS CAVALINHOS I ENERGETICA SA
Status: Indeferida
Municipio: Monte Alegre dos Campos
Corpo Hidrico: Sem denomina&#231;&#227;o
    </description>
      <styleUrl>#vermelho</styleUrl>
    </Placemark>
    <Placemark>
      <name>PCH Pezzi</name>
      <Point>
        <coordinates>-50.5646395683289,-28.7931990538675</coordinates>
      </Point>
      <description>
Processo: 2018/014.695
Usuario: PEZZI ENERGETICA SA
Status: Indeferida
Municipio: Bom Jesus
Corpo Hidrico: Sem denomina&#231;&#227;o
    </description>
      <styleUrl>#vermelho</styleUrl>
    </Placemark>
    <Placemark>
      <name>PCH Serra dos Cavalinhos II</name>
      <Point>
        <coordinates>-50.7456564903259,-28.7912433437793</coordinates>
      </Point>
      <description>
Processo: 2018/014.640
Usuario: SERRA DOS CAVALINHOS II ENERGETICA SA
Status: Indeferida
Municipio: Monte Alegre dos Campos
Corpo Hidrico: Sem denomina&#231;&#227;o
    </description>
      <styleUrl>#vermelho</styleUrl>
    </Placemark>
    <Placemark>
      <name>PCH Cotipor&#227;</name>
      <Point>
        <coordinates>-51.7580723762512,-28.9637684333985</coordinates>
      </Point>
      <description>
Processo: 2018/012.969
Usuario: COTIPOR&#195; ENERG&#201;TICA SA
Status: Indeferida
Municipio: Cotipor&#227;
Corpo Hidrico: Sem denomina&#231;&#227;o
    </description>
      <styleUrl>#vermelho</styleUrl>
    </Placemark>
    <Placemark>
      <name>PCH Coronel Barros</name>
      <Point>
        <coordinates>-54.0438,-28.4082</coordinates>
      </Point>
      <description>
Processo: 2018/017.547
Usuario: Cooperativa de Gera&#231;&#227;o de Energia e Desenvolvimento Social LTDA
Status: Indeferida
Municipio: Coronel Barros
Corpo Hidrico: Rio Concei&#231;&#227;o
    </description>
      <styleUrl>#vermelho</styleUrl>
    </Placemark>
    <Placemark>
      <name>PCH Ca&#231;ador</name>
      <Point>
        <coordinates>-51.850597858429,-28.7066614390401</coordinates>
      </Point>
      <description>
Processo: 2018/012.255
Usuario: CA&#199;ADOR ENERG&#201;TICA SA
Status: Indeferida
Municipio: Serafina Corr&#234;a
Corpo Hidrico: Rio Carreiro
    </description>
      <styleUrl>#vermelho</styleUrl>
    </Placemark>
    <Placemark>
      <name>CGH Santa Rita</name>
      <Point>
        <coordinates>-51.9060015678406,-29.5212639574035</coordinates>
      </Point>
      <description>
Processo: 2018/010.895
Usuario: ALS GERA&#199;&#195;O DE ENERGIA SPE LTDA
Status: Indeferida
Municipio: Estrela
Corpo Hidrico: Arroio Estrela
    </description>
      <styleUrl>#vermelho</styleUrl>
    </Placemark>
    <Placemark>
      <name>PCH Teste Amanda</name>
      <Point>
        <coordinates>-51.5082621574402,-28.6088630814389</coordinates>
      </Point>
      <description>
Processo: 2018/005.528
Usuario: Amanda Fadel
Status: Indeferida
Municipio: Andr&#233; da Rocha
Corpo Hidrico: Arroio Chimarrao
    </description>
      <styleUrl>#vermelho</styleUrl>
    </Placemark>
    <Placemark>
      <name>CGH Vanassi</name>
      <Point>
        <coordinates>-51.0092751160888,-29.1671439641435</coordinates>
      </Point>
      <description>
Processo: 2018/003.531
Usuario: APS Constru&#231;&#245;es EIRELI
Status: Indeferida
Municipio: Caxias do Sul
Corpo Hidrico: Sem denomina&#231;&#227;o
    </description>
      <styleUrl>#vermelho</styleUrl>
    </Placemark>
    <Placemark>
      <name>CGH Carapai</name>
      <Point>
        <coordinates>-51.041886,-29.176085</coordinates>
      </Point>
      <description>
Processo: 2018/004.498
Usuario: APS Constru&#231;&#245;es EIRELI
Status: Indeferida
Municipio: Caxias do Sul
Corpo Hidrico: Sem denomina&#231;&#227;o
    </description>
      <styleUrl>#vermelho</styleUrl>
    </Placemark>
    <Placemark>
      <name>CGH P&#233;</name>
      <Point>
        <coordinates>-51.0669207572937,-29.1830694909799</coordinates>
      </Point>
      <description>
Processo: 2018/004.496
Usuario: APS Constru&#231;&#245;es EIRELI
Status: Indeferida
Municipio: Caxias do Sul
Corpo Hidrico: Rio Piai
    </description>
      <styleUrl>#vermelho</styleUrl>
    </Placemark>
    <Placemark>
      <name>CGH Caravaggio</name>
      <Point>
        <coordinates>-51.0877,-29.1797</coordinates>
      </Point>
      <description>
Processo: 2018/004.495
Usuario: APS Constru&#231;&#245;es EIRELI
Status: Indeferida
Municipio: Caxias do Sul
Corpo Hidrico: Sem denomina&#231;&#227;o
    </description>
      <styleUrl>#vermelho</styleUrl>
    </Placemark>
    <Placemark>
      <name>CGH Pedras Brancas 01</name>
      <Point>
        <coordinates>-51.1291666666667,-28.8130555555556</coordinates>
      </Point>
      <description>
Processo: 2017/030.562
Usuario: Aecogeo Solu&#231;&#245;es Ambientais Ltda
Status: Indeferida
Municipio: Campestre da Serra
Corpo Hidrico: Sem denomina&#231;&#227;o
    </description>
      <styleUrl>#vermelho</styleUrl>
    </Placemark>
    <Placemark>
      <name>CGH Arroio da Reserva</name>
      <Point>
        <coordinates>-53.3474,-29.1881</coordinates>
      </Point>
      <description>
Processo: 2017/028.651
Usuario: SAULO SALLES BEVILACQUA NETO
Status: Indeferida
Municipio: Pinhal Grande
Corpo Hidrico: Arroio da Reserva
    </description>
      <styleUrl>#vermelho</styleUrl>
    </Placemark>
    <Placemark>
      <name>CGH Buric&#225;</name>
      <Point>
        <coordinates>-54.1076445579529,-27.8973113016424</coordinates>
      </Point>
      <description>
Processo: 2017/028.632
Usuario: COOPERATIVA DE DESENVOLVIMENTO SOCIAL ENTRE RIOS LTDA.
Status: Indeferida
Municipio: Inhacor&#225;
Corpo Hidrico: Sem denomina&#231;&#227;o
    </description>
      <styleUrl>#vermelho</styleUrl>
    </Placemark>
    <Placemark>
      <name>PCH Sede II</name>
      <Point>
        <coordinates>-53.8794412024506,-28.3713467861906</coordinates>
      </Point>
      <description>
Processo: 2017/000.678
Usuario: IJUI CENTENARIA GERACAO SPE LTDA
Status: Indeferida
Municipio: Iju&#237;
Corpo Hidrico: Rio Potiribu
    </description>
      <styleUrl>#vermelho</styleUrl>
    </Placemark>
  </Folder>
</Document>
